$PNAVA,,5.000000,*7F
$GPRMC,100001,A,4036.0900,N,07404.1740,W,9.72,74.00,220915,,,*1C
$PNAVA,,5.000000,*7F
$GPRMC,100002,A,4036.0908,N,07404.1701,W,9.72,74.00,220915,,,*12
$PNAVA,,5.000000,*7F
$GPRMC,100003,A,4036.0917,N,07404.1662,W,9.72,74.00,220915,,,*19
$PNAVA,,5.000000,*7F
$GPRMC,100004,A,4036.0925,N,07404.1626,W,9.72,74.00,220915,,,*1F
$PNAVA,,5.000000,*7F
$GPRMC,100005,A,4036.0932,N,07404.1594,W,9.72,73.00,220915,,,*15
$PNAVA,,5.000000,*7F
$GPRMC,100006,A,4036.0942,N,07404.1555,W,9.72,73.00,220915,,,*1C
$PNAVA,,5.000000,*7F
$GPRMC,100007,A,4036.0950,N,07404.1519,W,9.72,73.00,220915,,,*16
$PNAVA,,5.000000,*7F
$GPRMC,100008,A,4036.0959,N,07404.1480,W,9.72,73.00,220915,,,*11
$PNAVA,,5.000000,*7F
$GPRMC,100009,A,4036.0968,N,07404.1441,W,9.72,71.00,220915,,,*1D
$PNAVA,,5.000000,*7F
$GPRMC,100010,A,4036.0979,N,07404.1403,W,9.72,71.00,220915,,,*13
$PNAVA,,5.000000,*7F
$GPRMC,100011,A,4036.1006,N,07404.1387,W,9.72,21.00,220915,,,*1C
$PNAVA,,5.000000,*7F
$GPRMC,100012,A,4036.1035,N,07404.1373,W,9.72,21.00,220915,,,*14
$PNAVA,,5.000000,*7F
$GPRMC,100013,A,4036.1061,N,07404.1360,W,9.72,21.00,220915,,,*16
$PNAVA,,5.000000,*7F
$GPRMC,100014,A,4036.1093,N,07404.1350,W,9.72,13.00,220915,,,*1E
$PNAVA,,5.000000,*7F
$GPRMC,100015,A,4036.1123,N,07404.1341,W,9.72,13.00,220915,,,*15
$PNAVA,,5.000000,*7F
$GPRMC,100016,A,4036.1153,N,07404.1331,W,9.72,13.00,220915,,,*16
$PNAVA,,5.000000,*7F
$GPRMC,100017,A,4036.1183,N,07404.1322,W,9.72,13.00,220915,,,*18
$PNAVA,,5.000000,*7F
$GPRMC,100018,A,4036.1213,N,07404.1313,W,9.72,13.00,220915,,,*1F
$PNAVA,,5.000000,*7F
$GPRMC,100019,A,4036.1241,N,07404.1305,W,9.72,13.00,220915,,,*1E
$PNAVA,,5.000000,*7F
$GPRMC,100020,A,4036.1271,N,07404.1295,W,9.72,13.00,220915,,,*1F
$PNAVA,,5.000000,*7F
$GPRMC,100021,A,4036.1301,N,07404.1286,W,9.72,13.00,220915,,,*1A
$PNAVA,,5.000000,*7F
$GPRMC,100022,A,4036.1331,N,07404.1276,W,9.72,13.00,220915,,,*15
$PNAVA,,5.000000,*7F
$GPRMC,100023,A,4036.1361,N,07404.1267,W,9.72,13.00,220915,,,*11
$PNAVA,,5.000000,*7F
$GPRMC,100024,A,4036.1391,N,07404.1258,W,9.72,13.00,220915,,,*15
$PNAVA,,5.000000,*7F
$GPRMC,100025,A,4036.1418,N,07404.1250,W,9.72,13.00,220915,,,*1A
$PNAVA,,5.000000,*7F
$GPRMC,100026,A,4036.1449,N,07404.1242,W,9.72,9.00,220915,,,*25
$PNAVA,,5.000000,*7F
$GPRMC,100027,A,4036.1479,N,07404.1236,W,9.72,9.00,220915,,,*24
$PNAVA,,5.000000,*7F
$GPRMC,100028,A,4036.1510,N,07404.1228,W,9.72,12.00,220915,,,*10
$PNAVA,,5.000000,*7F
$GPRMC,100029,A,4036.1540,N,07404.1219,W,9.72,12.00,220915,,,*16
$PNAVA,,5.000000,*7F
$GPRMC,100030,A,4036.1570,N,07404.1210,W,9.72,12.00,220915,,,*14
$PNAVA,,5.000000,*7F
$GPRMC,100031,A,4036.1597,N,07404.1203,W,9.72,12.00,220915,,,*1E
$PNAVA,,5.000000,*7F
$GPRMC,100032,A,4036.1627,N,07404.1194,W,9.72,12.00,220915,,,*18
$PNAVA,,5.000000,*7F
$GPRMC,100033,A,4036.1658,N,07404.1185,W,9.72,12.00,220915,,,*11
$PNAVA,,5.000000,*7F
$GPRMC,100034,A,4036.1688,N,07404.1176,W,9.72,12.00,220915,,,*17
$PNAVA,,5.000000,*7F
$GPRMC,100035,A,4036.1699,N,07404.1209,W,9.72,286.00,220915,,,*22
$PNAVA,,5.000000,*7F
$GPRMC,100036,A,4036.1708,N,07404.1248,W,9.72,286.00,220915,,,*2D
$PNAVA,,5.000000,*7F
$GPRMC,100037,A,4036.1715,N,07404.1283,W,9.72,286.00,220915,,,*27
$PNAVA,,5.000000,*7F
$GPRMC,100038,A,4036.1724,N,07404.1323,W,9.72,286.00,220915,,,*21
$PNAVA,,5.000000,*7F
$GPRMC,100039,A,4036.1733,N,07404.1362,W,9.72,286.00,220915,,,*23
$PNAVA,,5.000000,*7F
$GPRMC,100040,A,4036.1741,N,07404.1401,W,9.72,286.00,220915,,,*2A
$PNAVA,,5.000000,*7F
$GPRMC,100041,A,4036.1750,N,07404.1441,W,9.72,286.00,220915,,,*2F
$PNAVA,,5.000000,*7F
$GPRMC,100042,A,4036.1758,N,07404.1479,W,9.72,286.00,220915,,,*2F
$PNAVA,,5.000000,*7F
$GPRMC,100043,A,4036.1766,N,07404.1514,W,9.72,286.00,220915,,,*29
$PNAVA,,5.000000,*7F
$GPRMC,100044,A,4036.1775,N,07404.1553,W,9.72,286.00,220915,,,*2F
$PNAVA,,5.000000,*7F
$GPRMC,100045,A,4036.1783,N,07404.1592,W,9.72,286.00,220915,,,*2A
$PNAVA,,5.000000,*7F
$GPRMC,100046,A,4036.1792,N,07404.1632,W,9.72,286.00,220915,,,*20
$PNAVA,,5.000000,*7F
$GPRMC,100047,A,4036.1801,N,07404.1670,W,9.72,297.00,220915,,,*22
$PNAVA,,5.000000,*7F
$GPRMC,100048,A,4036.1814,N,07404.1707,W,9.72,297.00,220915,,,*28
$PNAVA,,5.000000,*7F
$GPRMC,100049,A,4036.1835,N,07404.1718,W,21.38,21.00,220915,,,*2F
$PNAVA,,5.000000,*7F
$GPRMC,100050,A,4036.1893,N,07404.1690,W,21.38,21.00,220915,,,*2A
$PNAVA,,5.000000,*7F
$GPRMC,100051,A,4036.1952,N,07404.1666,W,21.38,16.00,220915,,,*2A
$PNAVA,,5.000000,*7F
$GPRMC,100052,A,4036.2012,N,07404.1645,W,21.38,16.00,220915,,,*26
$PNAVA,,5.000000,*7F
$GPRMC,100053,A,4036.2071,N,07404.1623,W,21.38,16.00,220915,,,*22
$PNAVA,,5.000000,*7F
$GPRMC,100054,A,4036.2131,N,07404.1601,W,21.38,16.00,220915,,,*20
$PNAVA,,5.000000,*7F
$GPRMC,100055,A,4036.2181,N,07404.1582,W,9.72,16.00,220915,,,*16
$PNAVA,,5.000000,*7F
$GPRMC,100056,A,4036.2211,N,07404.1572,W,9.72,16.00,220915,,,*10
$PNAVA,,5.000000,*7F
$GPRMC,100057,A,4036.2240,N,07404.1560,W,9.72,16.00,220915,,,*16
$PNAVA,,5.000000,*7F
$GPRMC,100058,A,4036.2270,N,07404.1549,W,9.72,16.00,220915,,,*11
$PNAVA,,5.000000,*7F
$GPRMC,100059,A,4036.2300,N,07404.1538,W,9.72,16.00,220915,,,*10
$PNAVA,,5.000000,*7F
$GPRMC,100100,A,4036.2330,N,07404.1527,W,9.72,45.00,220915,,,*16
$PNAVA,,5.000000,*7F
$GPRMC,100101,A,4036.2353,N,07404.1509,W,9.72,14.00,220915,,,*1A
$PNAVA,,5.000000,*7F
$GPRMC,100102,A,4036.2383,N,07404.1500,W,9.72,14.00,220915,,,*1D
$PNAVA,,5.000000,*7F
$GPRMC,100103,A,4036.2413,N,07404.1490,W,9.72,14.00,220915,,,*1A
$PNAVA,,5.000000,*7F
$GPRMC,100104,A,4036.2443,N,07404.1480,W,9.72,14.00,220915,,,*19
$PNAVA,,5.000000,*7F
$GPRMC,100105,A,4036.2473,N,07404.1470,W,9.72,14.00,220915,,,*14
$PNAVA,,5.000000,*7F
$GPRMC,100106,A,4036.2503,N,07404.1461,W,9.72,14.00,220915,,,*11
$PNAVA,,5.000000,*7F
$GPRMC,100107,A,4036.2529,N,07404.1450,W,9.72,18.00,220915,,,*16
$PNAVA,,5.000000,*7F
$GPRMC,100108,A,4036.2558,N,07404.1437,W,9.72,18.00,220915,,,*1E
$PNAVA,,5.000000,*7F
$GPRMC,100109,A,4036.2588,N,07404.1425,W,9.72,18.00,220915,,,*11
$PNAVA,,5.000000,*7F
$GPRMC,100110,A,4036.2617,N,07404.1412,W,9.72,18.00,220915,,,*18
$PNAVA,,5.000000,*7F
$GPRMC,100111,A,4036.2651,N,07404.1422,W,31.10,300.00,220915,,,*1D
$PNAVA,,5.000000,*7F
$GPRMC,100113,A,4036.2696,N,07404.1528,W,31.10,297.00,220915,,,*10
$PNAVA,,5.000000,*7F
$GPRMC,100114,A,4036.2735,N,07404.1626,W,31.10,297.00,220915,,,*12
$PNAVA,,5.000000,*7F
$GPRMC,100115,A,4036.2777,N,07404.1735,W,31.10,297.00,220915,,,*16
$PNAVA,,5.000000,*7F
$GPRMC,100116,A,4036.2819,N,07404.1844,W,31.10,297.00,220915,,,*1B
$PNAVA,,5.000000,*7F
$GPRMC,100117,A,4036.2862,N,07404.1953,W,31.10,297.00,220915,,,*11
$PNAVA,,5.000000,*7F
$GPRMC,100118,A,4036.2904,N,07404.2061,W,31.10,297.00,220915,,,*14
$PNAVA,,5.000000,*7F
$GPRMC,100119,A,4036.2947,N,07404.2170,W,31.10,297.00,220915,,,*13
$PNAVA,,5.000000,*7F
$GPRMC,100120,A,4036.2985,N,07404.2268,W,31.10,297.00,220915,,,*1D
$PNAVA,,5.000000,*7F
$GPRMC,100121,A,4036.3027,N,07404.2377,W,31.10,297.00,220915,,,*13
$PNAVA,,5.000000,*7F
$GPRMC,100122,A,4036.3070,N,07404.2485,W,31.10,297.00,220915,,,*18
$PNAVA,,5.000000,*7F
$GPRMC,100123,A,4036.3113,N,07404.2593,W,31.10,297.00,220915,,,*1B
$PNAVA,,5.000000,*7F
$GPRMC,100124,A,4036.3155,N,07404.2702,W,31.10,297.00,220915,,,*14
$PNAVA,,5.000000,*7F
$GPRMC,100125,A,4036.3199,N,07404.2810,W,31.10,297.00,220915,,,*19
$PNAVA,,5.000000,*7F
$GPRMC,100126,A,4036.3237,N,07404.2908,W,31.10,297.00,220915,,,*15
$PNAVA,,5.000000,*7F
$GPRMC,100127,A,4036.3280,N,07404.3016,W,31.10,297.00,220915,,,*1F
$PNAVA,,5.000000,*7F
$GPRMC,100128,A,4036.3323,N,07404.3125,W,31.10,297.00,220915,,,*19
$PNAVA,,5.000000,*7F
$GPRMC,100129,A,4036.3365,N,07404.3233,W,31.10,297.00,220915,,,*1E
$PNAVA,,5.000000,*7F
$GPRMC,100130,A,4036.3408,N,07404.3342,W,31.10,297.00,220915,,,*1D
$PNAVA,,5.000000,*7F
$GPRMC,100131,A,4036.3451,N,07404.3450,W,31.10,297.00,220915,,,*14
$PNAVA,,5.000000,*7F
$GPRMC,100132,A,4036.3490,N,07404.3548,W,31.10,297.00,220915,,,*12
$PNAVA,,5.000000,*7F
$GPRMC,100133,A,4036.3533,N,07404.3657,W,31.10,297.00,220915,,,*16
$PNAVA,,5.000000,*7F
$GPRMC,100134,A,4036.3573,N,07404.3766,W,31.10,294.00,220915,,,*15
$PNAVA,,5.000000,*7F
$GPRMC,100135,A,4036.3611,N,07404.3877,W,31.10,294.00,220915,,,*1C
$PNAVA,,5.000000,*7F
$GPRMC,100136,A,4036.3650,N,07404.3988,W,31.10,294.00,220915,,,*1B
$PNAVA,,5.000000,*7F
$GPRMC,100137,A,4036.3680,N,07404.4090,W,31.10,290.00,220915,,,*14
$PNAVA,,5.000000,*7F
$GPRMC,100138,A,4036.3708,N,07404.4195,W,31.10,290.00,220915,,,*1E
$PNAVA,,5.000000,*7F
$GPRMC,100139,A,4036.3740,N,07404.4309,W,31.10,290.00,220915,,,*14
$PNAVA,,5.000000,*7F
$GPRMC,100140,A,4036.3771,N,07404.4424,W,31.10,290.00,220915,,,*10
$PNAVA,,5.000000,*7F
$GPRMC,100141,A,4036.3802,N,07404.4539,W,31.10,290.00,220915,,,*17
$PNAVA,,5.000000,*7F
$GPRMC,100142,A,4036.3831,N,07404.4651,W,31.10,287.00,220915,,,*1F
$PNAVA,,5.000000,*7F
$GPRMC,100143,A,4036.3857,N,07404.4768,W,31.10,287.00,220915,,,*15
$PNAVA,,5.000000,*7F
$GPRMC,100144,A,4036.3881,N,07404.4875,W,31.10,287.00,220915,,,*1A
$PNAVA,,5.000000,*7F
$GPRMC,100145,A,4036.3908,N,07404.4992,W,31.10,287.00,220915,,,*13
$PNAVA,,5.000000,*7F
$GPRMC,100146,A,4036.3934,N,07404.5109,W,31.10,287.00,220915,,,*14
$PNAVA,,5.000000,*7F
$GPRMC,100147,A,4036.3961,N,07404.5226,W,31.10,282.00,220915,,,*1E
$PNAVA,,5.000000,*7F
$GPRMC,100148,A,4036.3980,N,07404.5345,W,31.10,282.00,220915,,,*1A
$PNAVA,,5.000000,*7F
$GPRMC,100149,A,4036.3998,N,07404.5465,W,31.10,282.00,220915,,,*17
$PNAVA,,5.000000,*7F
$GPRMC,100150,A,4036.4016,N,07404.5571,W,31.10,283.00,220915,,,*12
$PNAVA,,5.000000,*7F
$GPRMC,100151,A,4036.4036,N,07404.5689,W,31.10,283.00,220915,,,*15
$PNAVA,,5.000000,*7F
$GPRMC,100152,A,4036.4057,N,07404.5809,W,31.10,283.00,220915,,,*17
$PNAVA,,5.000000,*7F
$GPRMC,100153,A,4036.4076,N,07404.5926,W,31.10,281.00,220915,,,*1B
$PNAVA,,5.000000,*7F
$GPRMC,100154,A,4036.4094,N,07404.6045,W,31.10,281.00,220915,,,*1F
$PNAVA,,5.000000,*7F
$GPRMC,100155,A,4036.4112,N,07404.6161,W,31.10,282.00,220915,,,*15
$PNAVA,,5.000000,*7F
$GPRMC,100156,A,4036.4131,N,07404.6270,W,31.10,282.00,220915,,,*14
$PNAVA,,5.000000,*7F
$GPRMC,100157,A,4036.4133,N,07404.6393,W,31.10,270.00,220915,,,*16
$PNAVA,,5.000000,*7F
$GPRMC,100158,A,4036.4133,N,07404.6515,W,31.10,270.00,220915,,,*11
$PNAVA,,5.000000,*7F
$GPRMC,100159,A,4036.4133,N,07404.6635,W,31.10,270.00,220915,,,*11
$PNAVA,,5.000000,*7F
$GPRMC,100200,A,4036.4133,N,07404.6757,W,31.10,270.00,220915,,,*1B
$PNAVA,,5.000000,*7F
$GPRMC,100201,A,4036.4130,N,07404.6876,W,31.10,263.00,220915,,,*17
$PNAVA,,5.000000,*7F
$GPRMC,100202,A,4036.4120,N,07404.6987,W,31.10,263.00,220915,,,*1A
$PNAVA,,5.000000,*7F
$GPRMC,100203,A,4036.4109,N,07404.7108,W,31.10,263.00,220915,,,*1E
$PNAVA,,5.000000,*7F
$GPRMC,100204,A,4036.4097,N,07404.7228,W,31.10,255.00,220915,,,*1B
$PNAVA,,5.000000,*7F
$GPRMC,100205,A,4036.4073,N,07404.7346,W,31.10,255.00,220915,,,*19
$PNAVA,,5.000000,*7F
$GPRMC,100206,A,4036.4049,N,07404.7464,W,31.10,255.00,220915,,,*14
$PNAVA,,5.000000,*7F
$GPRMC,100207,A,4036.4024,N,07404.7582,W,31.10,255.00,220915,,,*17
$PNAVA,,5.000000,*7F
$GPRMC,100208,A,4036.4003,N,07404.7686,W,31.10,255.00,220915,,,*1A
$PNAVA,,5.000000,*7F
$GPRMC,100209,A,4036.3979,N,07404.7803,W,31.10,255.00,220915,,,*1B
$PNAVA,,5.000000,*7F
$GPRMC,100210,A,4036.3954,N,07404.7921,W,31.10,255.00,220915,,,*1D
$PNAVA,,5.000000,*7F
$GPRMC,100211,A,4036.3929,N,07404.8038,W,31.10,255.00,220915,,,*18
$PNAVA,,5.000000,*7F
$GPRMC,100212,A,4036.3914,N,07404.8158,W,31.10,266.00,220915,,,*12
$PNAVA,,5.000000,*7F
$GPRMC,100213,A,4036.3907,N,07404.8280,W,31.10,266.00,220915,,,*17
$PNAVA,,5.000000,*7F
$GPRMC,100214,A,4036.3908,N,07404.8388,W,31.10,272.00,220915,,,*13
$PNAVA,,5.000000,*7F
$GPRMC,100215,A,4036.3911,N,07404.8511,W,31.10,272.00,220915,,,*1C
$PNAVA,,5.000000,*7F
$GPRMC,100216,A,4036.3914,N,07404.8632,W,31.10,272.00,220915,,,*18
$PNAVA,,5.000000,*7F
$GPRMC,100217,A,4036.3917,N,07404.8754,W,31.10,270.00,220915,,,*19
$PNAVA,,5.000000,*7F
$GPRMC,100218,A,4036.3929,N,07404.8871,W,31.10,277.00,220915,,,*14
$PNAVA,,5.000000,*7F
$GPRMC,100219,A,4036.3940,N,07404.8992,W,31.10,277.00,220915,,,*16
$PNAVA,,5.000000,*7F
$GPRMC,100220,A,4036.3950,N,07404.9103,W,31.10,277.00,220915,,,*1C
$PNAVA,,5.000000,*7F
$GPRMC,100221,A,4036.3961,N,07404.9224,W,31.10,277.00,220915,,,*19
$PNAVA,,5.000000,*7F
$GPRMC,100222,A,4036.3972,N,07404.9345,W,31.10,282.00,220915,,,*14
$PNAVA,,5.000000,*7F
$GPRMC,100223,A,4036.3991,N,07404.9465,W,31.10,282.00,220915,,,*1D
$PNAVA,,5.000000,*7F
$GPRMC,100225,A,4036.4012,N,07404.9583,W,31.10,284.00,220915,,,*11
$PNAVA,,5.000000,*7F
$GPRMC,100226,A,4036.4035,N,07404.9702,W,31.10,284.00,220915,,,*1C
$PNAVA,,5.000000,*7F
$GPRMC,100227,A,4036.4064,N,07404.9806,W,31.10,290.00,220915,,,*17
$PNAVA,,5.000000,*7F
$GPRMC,100228,A,4036.4096,N,07404.9921,W,31.10,290.00,220915,,,*11
$PNAVA,,5.000000,*7F
$GPRMC,100229,A,4036.4127,N,07405.0035,W,31.10,290.00,220915,,,*1F
$PNAVA,,5.000000,*7F
$GPRMC,100230,A,4036.4159,N,07405.0150,W,31.10,290.00,220915,,,*1C
$PNAVA,,5.000000,*7F
$GPRMC,100231,A,4036.4192,N,07405.0264,W,31.10,290.00,220915,,,*1E
$PNAVA,,5.000000,*7F
$GPRMC,100232,A,4036.4226,N,07405.0377,W,31.10,294.00,220915,,,*16
$PNAVA,,5.000000,*7F
$GPRMC,100233,A,4036.4261,N,07405.0479,W,31.10,294.00,220915,,,*1D
$PNAVA,,5.000000,*7F
$GPRMC,100234,A,4036.4300,N,07405.0590,W,31.10,294.00,220915,,,*1A
$PNAVA,,5.000000,*7F
$GPRMC,100235,A,4036.4337,N,07405.0701,W,31.10,294.00,220915,,,*15
$PNAVA,,5.000000,*7F
$GPRMC,100236,A,4036.4376,N,07405.0812,W,31.10,294.00,220915,,,*1E
$PNAVA,,5.000000,*7F
$GPRMC,100237,A,4036.4417,N,07405.0921,W,31.10,300.00,220915,,,*12
$PNAVA,,5.000000,*7F
$GPRMC,100238,A,4036.4463,N,07405.1027,W,31.10,300.00,220915,,,*10
$PNAVA,,5.000000,*7F
$GPRMC,100239,A,4036.4496,N,07405.1104,W,31.10,296.00,220915,,,*15
$PNAVA,,5.000000,*7F
$GPRMC,100240,A,4036.4537,N,07405.1214,W,31.10,296.00,220915,,,*13
$PNAVA,,5.000000,*7F
$GPRMC,100241,A,4036.4577,N,07405.1323,W,31.10,296.00,220915,,,*13
$PNAVA,,5.000000,*7F
$GPRMC,100242,A,4036.4618,N,07405.1433,W,31.10,296.00,220915,,,*1C
$PNAVA,,5.000000,*7F
$GPRMC,100243,A,4036.4658,N,07405.1542,W,31.10,296.00,220915,,,*1E
$PNAVA,,5.000000,*7F
$GPRMC,100244,A,4036.4699,N,07405.1646,W,31.10,298.00,220915,,,*1D
$PNAVA,,5.000000,*7F
$GPRMC,100245,A,4036.4739,N,07405.1743,W,31.10,298.00,220915,,,*13
$PNAVA,,5.000000,*7F
$GPRMC,100246,A,4036.4783,N,07405.1851,W,31.10,298.00,220915,,,*1D
$PNAVA,,5.000000,*7F
$GPRMC,100247,A,4036.4826,N,07405.1959,W,31.10,298.00,220915,,,*15
$PNAVA,,5.000000,*7F
$GPRMC,100248,A,4036.4868,N,07405.2063,W,31.10,297.00,220915,,,*1C
$PNAVA,,5.000000,*7F
$GPRMC,100249,A,4036.4910,N,07405.2172,W,31.10,297.00,220915,,,*12
$PNAVA,,5.000000,*7F
$GPRMC,100250,A,4036.4952,N,07405.2281,W,31.10,297.00,220915,,,*13
$PNAVA,,5.000000,*7F
$GPRMC,100251,A,4036.4990,N,07405.2380,W,31.10,297.00,220915,,,*1C
$PNAVA,,5.000000,*7F
$GPRMC,100252,A,4036.5032,N,07405.2489,W,31.10,297.00,220915,,,*11
$PNAVA,,5.000000,*7F
$GPRMC,100253,A,4036.5074,N,07405.2597,W,31.10,298.00,220915,,,*13
$PNAVA,,5.000000,*7F
$GPRMC,100254,A,4036.5118,N,07405.2705,W,31.10,298.00,220915,,,*16
$PNAVA,,5.000000,*7F
$GPRMC,100255,A,4036.5162,N,07405.2813,W,31.10,298.00,220915,,,*12
$PNAVA,,5.000000,*7F
$GPRMC,100256,A,4036.5206,N,07405.2920,W,31.10,298.00,220915,,,*11
$PNAVA,,5.000000,*7F
$GPRMC,100257,A,4036.5245,N,07405.3018,W,31.10,298.00,220915,,,*14
$PNAVA,,5.000000,*7F
$GPRMC,100258,A,4036.5282,N,07405.3122,W,31.10,295.00,220915,,,*15
$PNAVA,,5.000000,*7F
$GPRMC,100259,A,4036.5323,N,07405.3231,W,31.10,295.00,220915,,,*1F
$PNAVA,,5.000000,*7F
$GPRMC,100300,A,4036.5362,N,07405.3342,W,31.10,295.00,220915,,,*12
$PNAVA,,5.000000,*7F
$GPRMC,100301,A,4036.5402,N,07405.3452,W,31.10,295.00,220915,,,*14
$PNAVA,,5.000000,*7F
$GPRMC,100302,A,4036.5443,N,07405.3562,W,31.10,297.00,220915,,,*12
$PNAVA,,5.000000,*7F
$GPRMC,100303,A,4036.5480,N,07405.3661,W,31.10,297.00,220915,,,*1C
$PNAVA,,5.000000,*7F
$GPRMC,100304,A,4036.5522,N,07405.3770,W,31.10,297.00,220915,,,*13
$PNAVA,,5.000000,*7F
$GPRMC,100305,A,4036.5566,N,07405.3878,W,31.10,299.00,220915,,,*1B
$PNAVA,,5.000000,*7F
$GPRMC,100306,A,4036.5611,N,07405.3984,W,31.10,299.00,220915,,,*19
$PNAVA,,5.000000,*7F
$GPRMC,100307,A,4036.5654,N,07405.4086,W,31.10,297.00,220915,,,*1B
$PNAVA,,5.000000,*7F
$GPRMC,100308,A,4036.5696,N,07405.4195,W,31.10,297.00,220915,,,*19
$PNAVA,,5.000000,*7F
$GPRMC,100309,A,4036.5734,N,07405.4294,W,31.10,297.00,220915,,,*13
$PNAVA,,5.000000,*7F
$GPRMC,100310,A,4036.5776,N,07405.4403,W,31.10,297.00,220915,,,*15
$PNAVA,,5.000000,*7F
$GPRMC,100311,A,4036.5818,N,07405.4512,W,31.10,297.00,220915,,,*12
$PNAVA,,5.000000,*7F
$GPRMC,100312,A,4036.5861,N,07405.4620,W,31.10,297.00,220915,,,*1D
$PNAVA,,5.000000,*7F
$GPRMC,100313,A,4036.5903,N,07405.4728,W,31.10,297.00,220915,,,*10
$PNAVA,,5.000000,*7F
$GPRMC,100314,A,4036.5946,N,07405.4836,W,31.10,297.00,220915,,,*16
$PNAVA,,5.000000,*7F
$GPRMC,100315,A,4036.5985,N,07405.4935,W,31.10,297.00,220915,,,*1A
$PNAVA,,5.000000,*7F
$GPRMC,100316,A,4036.6028,N,07405.5043,W,31.10,297.00,220915,,,*1D
$PNAVA,,5.000000,*7F
$GPRMC,100317,A,4036.6071,N,07405.5151,W,31.10,297.00,220915,,,*12
$PNAVA,,5.000000,*7F
$GPRMC,100318,A,4036.6113,N,07405.5260,W,31.10,297.00,220915,,,*19
$PNAVA,,5.000000,*7F
$GPRMC,100319,A,4036.6156,N,07405.5368,W,31.10,297.00,220915,,,*10
$PNAVA,,5.000000,*7F
$GPRMC,100320,A,4036.6194,N,07405.5479,W,31.10,294.00,220915,,,*10
$PNAVA,,5.000000,*7F
$GPRMC,100321,A,4036.6229,N,07405.5580,W,31.10,294.00,220915,,,*13
$PNAVA,,5.000000,*7F
$GPRMC,100322,A,4036.6267,N,07405.5692,W,31.10,294.00,220915,,,*1A
$PNAVA,,5.000000,*7F
$GPRMC,100323,A,4036.6305,N,07405.5803,W,31.10,294.00,220915,,,*18
$PNAVA,,5.000000,*7F
$GPRMC,100324,A,4036.6341,N,07405.5915,W,31.10,289.00,220915,,,*15
$PNAVA,,5.000000,*7F
$GPRMC,100325,A,4036.6371,N,07405.6031,W,31.10,289.00,220915,,,*1B
$PNAVA,,5.000000,*7F
$GPRMC,100326,A,4036.6400,N,07405.6147,W,31.10,289.00,220915,,,*19
$PNAVA,,5.000000,*7F
$GPRMC,100327,A,4036.6426,N,07405.6252,W,31.10,284.00,220915,,,*16
$PNAVA,,5.000000,*7F
$GPRMC,100328,A,4036.6449,N,07405.6371,W,31.10,284.00,220915,,,*10
$PNAVA,,5.000000,*7F
$GPRMC,100329,A,4036.6472,N,07405.6489,W,31.10,284.00,220915,,,*19
$PNAVA,,5.000000,*7F
$GPRMC,100330,A,4036.6491,N,07405.6585,W,31.10,285.00,220915,,,*10
$PNAVA,,5.000000,*7F
$GPRMC,100331,A,4036.6514,N,07405.6704,W,31.10,285.00,220915,,,*16
$PNAVA,,5.000000,*7F
$GPRMC,100332,A,4036.6535,N,07405.6822,W,31.10,279.00,220915,,,*1E
$PNAVA,,5.000000,*7F
$GPRMC,100333,A,4036.6549,N,07405.6932,W,31.10,279.00,220915,,,*14
$PNAVA,,5.000000,*7F
$GPRMC,100334,A,4036.6565,N,07405.7052,W,31.10,279.00,220915,,,*13
$PNAVA,,5.000000,*7F
$GPRMC,100335,A,4036.6580,N,07405.7172,W,31.10,279.00,220915,,,*1A
$PNAVA,,5.000000,*7F
$GPRMC,100337,A,4036.6595,N,07405.7293,W,31.10,272.00,220915,,,*1B
$PNAVA,,5.000000,*7F
$GPRMC,100338,A,4036.6598,N,07405.7415,W,31.10,272.00,220915,,,*11
$PNAVA,,5.000000,*7F
$GPRMC,100339,A,4036.6602,N,07405.7537,W,31.10,272.00,220915,,,*11
$PNAVA,,5.000000,*7F
$GPRMC,100340,A,4036.6605,N,07405.7648,W,31.10,272.00,220915,,,*13
$PNAVA,,5.000000,*7F
$GPRMC,100341,A,4036.6606,N,07405.7770,W,31.10,270.00,220915,,,*19
$PNAVA,,5.000000,*7F
$GPRMC,100342,A,4036.6606,N,07405.7892,W,31.10,270.00,220915,,,*19
$PNAVA,,5.000000,*7F
$GPRMC,100343,A,4036.6606,N,07405.8013,W,31.10,270.00,220915,,,*16
$PNAVA,,5.000000,*7F
$GPRMC,100344,A,4036.6604,N,07405.8124,W,31.10,268.00,220915,,,*1F
$PNAVA,,5.000000,*7F
$GPRMC,100345,A,4036.6601,N,07405.8247,W,31.10,268.00,220915,,,*1D
$PNAVA,,5.000000,*7F
$GPRMC,100346,A,4036.6598,N,07405.8358,W,31.10,268.00,220915,,,*12
$PNAVA,,5.000000,*7F
$GPRMC,100347,A,4036.6594,N,07405.8480,W,31.10,268.00,220915,,,*1D
$PNAVA,,5.000000,*7F
$GPRMC,100348,A,4036.6590,N,07405.8601,W,31.10,268.00,220915,,,*1D
$PNAVA,,5.000000,*7F
$GPRMC,100349,A,4036.6587,N,07405.8723,W,31.10,268.00,220915,,,*1B
$PNAVA,,5.000000,*7F
$GPRMC,100350,A,4036.6578,N,07405.8838,W,31.10,251.00,220915,,,*1C
$PNAVA,,5.000000,*7F
$GPRMC,100351,A,4036.6572,N,07405.8961,W,31.10,267.00,220915,,,*1F
$PNAVA,,5.000000,*7F
$GPRMC,100352,A,4036.6568,N,07405.9071,W,31.10,267.00,220915,,,*1E
$PNAVA,,5.000000,*7F
$GPRMC,100353,A,4036.6563,N,07405.9193,W,31.10,267.00,220915,,,*19
$PNAVA,,5.000000,*7F
$GPRMC,100354,A,4036.6557,N,07405.9315,W,31.10,267.00,220915,,,*15
$PNAVA,,5.000000,*7F
$GPRMC,100355,A,4036.6553,N,07405.9437,W,31.10,267.00,220915,,,*17
$PNAVA,,5.000000,*7F
$GPRMC,100356,A,4036.6548,N,07405.9558,W,31.10,267.00,220915,,,*16
$PNAVA,,5.000000,*7F
$GPRMC,100357,A,4036.6543,N,07405.9681,W,31.10,267.00,220915,,,*1B
$PNAVA,,5.000000,*7F
$GPRMC,100358,A,4036.6539,N,07405.9791,W,31.10,267.00,220915,,,*19
$PNAVA,,5.000000,*7F
$GPRMC,100359,A,4036.6535,N,07405.9913,W,31.10,267.00,220915,,,*10
$PNAVA,,5.000000,*7F
$GPRMC,100400,A,4036.6531,N,07406.0035,W,31.10,267.00,220915,,,*18
$PNAVA,,5.000000,*7F
$GPRMC,100401,A,4036.6514,N,07406.0146,W,31.10,259.00,220915,,,*16
$PNAVA,,5.000000,*7F
$GPRMC,100402,A,4036.6494,N,07406.0266,W,31.10,259.00,220915,,,*1D
$PNAVA,,5.000000,*7F
$GPRMC,100403,A,4036.6476,N,07406.0385,W,31.10,259.00,220915,,,*1C
$PNAVA,,5.000000,*7F
$GPRMC,100404,A,4036.6460,N,07406.0494,W,31.10,262.00,220915,,,*13
$PNAVA,,5.000000,*7F
$GPRMC,100405,A,4036.6446,N,07406.0617,W,31.10,262.00,220915,,,*1F
$PNAVA,,5.000000,*7F
$GPRMC,100406,A,4036.6432,N,07406.0736,W,31.10,262.00,220915,,,*1D
$PNAVA,,5.000000,*7F
$GPRMC,100407,A,4036.6418,N,07406.0856,W,31.10,262.00,220915,,,*1D
$PNAVA,,5.000000,*7F
$GPRMC,100408,A,4036.6404,N,07406.0977,W,31.10,262.00,220915,,,*1D
$PNAVA,,5.000000,*7F
$GPRMC,100409,A,4036.6390,N,07406.1097,W,31.10,258.00,220915,,,*19
$PNAVA,,5.000000,*7F
$GPRMC,100410,A,4036.6372,N,07406.1206,W,31.10,258.00,220915,,,*17
$PNAVA,,5.000000,*7F
$GPRMC,100411,A,4036.6352,N,07406.1325,W,31.10,258.00,220915,,,*14
$PNAVA,,5.000000,*7F
$GPRMC,100412,A,4036.6335,N,07406.1440,W,42.76,267.00,220915,,,*1A
$PNAVA,,5.000000,*7F
$GPRMC,100413,A,4036.6329,N,07406.1603,W,42.76,267.00,220915,,,*13
$PNAVA,,5.000000,*7F
$GPRMC,100414,A,4036.6323,N,07406.1765,W,42.76,267.00,220915,,,*1F
$PNAVA,,5.000000,*7F
$GPRMC,100415,A,4036.6316,N,07406.1928,W,42.76,267.00,220915,,,*1F
$PNAVA,,5.000000,*7F
$GPRMC,100416,A,4036.6310,N,07406.2075,W,42.76,267.00,220915,,,*18
$PNAVA,,5.000000,*7F
$GPRMC,100417,A,4036.6304,N,07406.2238,W,42.76,267.00,220915,,,*17
$PNAVA,,5.000000,*7F
$GPRMC,100418,A,4036.6298,N,07406.2401,W,42.76,267.00,220915,,,*10
$PNAVA,,5.000000,*7F
$GPRMC,100419,A,4036.6291,N,07406.2563,W,42.76,267.00,220915,,,*1D
$PNAVA,,5.000000,*7F
$GPRMC,100420,A,4036.6285,N,07406.2725,W,42.76,267.00,220915,,,*12
$PNAVA,,5.000000,*7F
$GPRMC,100421,A,4036.6280,N,07406.2888,W,42.76,268.00,220915,,,*11
$PNAVA,,5.000000,*7F
$GPRMC,100422,A,4036.6277,N,07406.3036,W,42.76,268.00,220915,,,*16
$PNAVA,,5.000000,*7F
$GPRMC,100423,A,4036.6273,N,07406.3199,W,42.76,268.00,220915,,,*17
$PNAVA,,5.000000,*7F
$GPRMC,100424,A,4036.6267,N,07406.3361,W,42.76,264.00,220915,,,*1C
$PNAVA,,5.000000,*7F
$GPRMC,100425,A,4036.6258,N,07406.3523,W,42.76,267.00,220915,,,*12
$PNAVA,,5.000000,*7F
$GPRMC,100426,A,4036.6253,N,07406.3686,W,42.76,267.00,220915,,,*16
$PNAVA,,5.000000,*7F
$GPRMC,100427,A,4036.6247,N,07406.3848,W,42.76,267.00,220915,,,*1E
$PNAVA,,5.000000,*7F
$GPRMC,100428,A,4036.6242,N,07406.3996,W,42.76,267.00,220915,,,*16
$PNAVA,,5.000000,*7F
$GPRMC,100429,A,4036.6236,N,07406.4159,W,42.76,267.00,220915,,,*18
$PNAVA,,5.000000,*7F
$GPRMC,100430,A,4036.6231,N,07406.4321,W,42.76,267.00,220915,,,*1A
$PNAVA,,5.000000,*7F
$GPRMC,100431,A,4036.6226,N,07406.4484,W,42.76,267.00,220915,,,*15
$PNAVA,,5.000000,*7F
$GPRMC,100432,A,4036.6220,N,07406.4646,W,42.76,267.00,220915,,,*1C
$PNAVA,,5.000000,*7F
$GPRMC,100433,A,4036.6215,N,07406.4809,W,42.76,268.00,220915,,,*11
$PNAVA,,5.000000,*7F
$GPRMC,100434,A,4036.6212,N,07406.4957,W,42.76,268.00,220915,,,*1B
$PNAVA,,5.000000,*7F
$GPRMC,100435,A,4036.6207,N,07406.5120,W,42.76,268.00,220915,,,*17
$PNAVA,,5.000000,*7F
$GPRMC,100436,A,4036.6209,N,07406.5282,W,42.76,272.00,220915,,,*1A
$PNAVA,,5.000000,*7F
$GPRMC,100437,A,4036.6214,N,07406.5445,W,42.76,272.00,220915,,,*1A
$PNAVA,,5.000000,*7F
$GPRMC,100438,A,4036.6222,N,07406.5607,W,42.76,278.00,220915,,,*1E
$PNAVA,,5.000000,*7F
$GPRMC,100439,A,4036.6241,N,07406.5768,W,42.76,278.00,220915,,,*12
$PNAVA,,5.000000,*7F
$GPRMC,100440,A,4036.6257,N,07406.5914,W,42.76,278.00,220915,,,*1E
$PNAVA,,5.000000,*7F
$GPRMC,100441,A,4036.6280,N,07406.6074,W,42.76,286.00,220915,,,*18
$PNAVA,,5.000000,*7F
$GPRMC,100442,A,4036.6316,N,07406.6230,W,42.76,287.00,220915,,,*16
$PNAVA,,5.000000,*7F
$GPRMC,100443,A,4036.6351,N,07406.6386,W,42.76,287.00,220915,,,*18
$PNAVA,,5.000000,*7F
$GPRMC,100444,A,4036.6386,N,07406.6542,W,42.76,287.00,220915,,,*1B
$PNAVA,,5.000000,*7F
$GPRMC,100445,A,4036.6412,N,07406.6654,W,42.76,289.00,220915,,,*1A
$PNAVA,,5.000000,*7F
$GPRMC,100446,A,4036.6449,N,07406.6793,W,42.76,289.00,220915,,,*1D
$PNAVA,,5.000000,*7F
$GPRMC,100447,A,4036.6491,N,07406.6947,W,42.76,289.00,220915,,,*1E
$PNAVA,,5.000000,*7F
$GPRMC,100449,A,4036.6532,N,07406.7100,W,42.76,289.00,220915,,,*12
$PNAVA,,5.000000,*7F
$GPRMC,100450,A,4036.6572,N,07406.7255,W,42.76,287.00,220915,,,*13
$PNAVA,,5.000000,*7F
$GPRMC,100451,A,4036.6608,N,07406.7409,W,42.76,287.00,220915,,,*13
$PNAVA,,5.000000,*7F
$GPRMC,100452,A,4036.6645,N,07406.7565,W,42.76,287.00,220915,,,*12
$PNAVA,,5.000000,*7F
$GPRMC,100453,A,4036.6679,N,07406.7706,W,42.76,287.00,220915,,,*1B
$PNAVA,,5.000000,*7F
$GPRMC,100454,A,4036.6709,N,07406.7864,W,42.76,282.00,220915,,,*14
$PNAVA,,5.000000,*7F
$GPRMC,100455,A,4036.6734,N,07406.8023,W,42.76,282.00,220915,,,*1F
$PNAVA,,5.000000,*7F
$GPRMC,100456,A,4036.6759,N,07406.8183,W,42.76,276.00,220915,,,*17
$PNAVA,,5.000000,*7F
$GPRMC,100457,A,4036.6772,N,07406.8344,W,42.76,276.00,220915,,,*16
$PNAVA,,5.000000,*7F
$GPRMC,100458,A,4036.6785,N,07406.8506,W,42.76,276.00,220915,,,*11
$PNAVA,,5.000000,*7F
$GPRMC,100459,A,4036.6790,N,07406.8654,W,42.76,270.00,220915,,,*16
$PNAVA,,5.000000,*7F
$GPRMC,100500,A,4036.6790,N,07406.8816,W,42.76,270.00,220915,,,*13
$PNAVA,,5.000000,*7F
$GPRMC,100501,A,4036.6790,N,07406.8979,W,42.76,270.00,220915,,,*1A
$PNAVA,,5.000000,*7F
$GPRMC,100502,A,4036.6783,N,07406.9142,W,42.76,266.00,220915,,,*1D
$PNAVA,,5.000000,*7F
$GPRMC,100503,A,4036.6775,N,07406.9304,W,42.76,266.00,220915,,,*15
$PNAVA,,5.000000,*7F
$GPRMC,100504,A,4036.6767,N,07406.9467,W,42.76,259.00,220915,,,*1F
$PNAVA,,5.000000,*7F
$GPRMC,100505,A,4036.6746,N,07406.9612,W,42.76,259.00,220915,,,*1D
$PNAVA,,5.000000,*7F
$GPRMC,100506,A,4036.6722,N,07406.9772,W,42.76,258.00,220915,,,*1A
$PNAVA,,5.000000,*7F
$GPRMC,100507,A,4036.6694,N,07406.9929,W,42.76,256.00,220915,,,*19
$PNAVA,,5.000000,*7F
$GPRMC,100508,A,4036.6669,N,07407.0058,W,42.76,256.00,220915,,,*13
$PNAVA,,5.000000,*7F
$GPRMC,100509,A,4036.6634,N,07407.0216,W,42.76,251.00,220915,,,*15
$PNAVA,,5.000000,*7F
$GPRMC,100510,A,4036.6593,N,07407.0369,W,42.76,251.00,220915,,,*1A
$PNAVA,,5.000000,*7F
$GPRMC,100511,A,4036.6555,N,07407.0508,W,42.76,251.00,220915,,,*10
$PNAVA,,5.000000,*7F
$GPRMC,100512,A,4036.6513,N,07407.0662,W,42.76,251.00,220915,,,*1E
$PNAVA,,5.000000,*7F
$GPRMC,100513,A,4036.6472,N,07407.0815,W,42.76,251.00,220915,,,*17
$PNAVA,,5.000000,*7F
$GPRMC,100514,A,4036.6430,N,07407.0968,W,42.76,251.00,220915,,,*1D
$PNAVA,,5.000000,*7F
$GPRMC,100515,A,4036.6388,N,07407.1122,W,42.76,251.00,220915,,,*1F
$PNAVA,,5.000000,*7F
$GPRMC,100516,A,4036.6347,N,07407.1275,W,42.76,251.00,220915,,,*1E
$PNAVA,,5.000000,*7F
$GPRMC,100517,A,4036.6308,N,07407.1414,W,42.76,251.00,220915,,,*15
$PNAVA,,5.000000,*7F
$GPRMC,100518,A,4036.6267,N,07407.1567,W,42.76,251.00,220915,,,*17
$PNAVA,,5.000000,*7F
$GPRMC,100519,A,4036.6226,N,07407.1720,W,42.76,251.00,220915,,,*12
$PNAVA,,5.000000,*7F
$GPRMC,100520,A,4036.6185,N,07407.1875,W,42.76,251.00,220915,,,*1D
$PNAVA,,5.000000,*7F
$GPRMC,100521,A,4036.6145,N,07407.2028,W,42.76,251.00,220915,,,*13
$PNAVA,,5.000000,*7F
$GPRMC,100522,A,4036.6104,N,07407.2182,W,42.76,251.00,220915,,,*14
$PNAVA,,5.000000,*7F
$GPRMC,100523,A,4036.6067,N,07407.2322,W,42.76,251.00,220915,,,*19
$PNAVA,,5.000000,*7F
$GPRMC,100524,A,4036.6027,N,07407.2475,W,42.76,251.00,220915,,,*1F
$PNAVA,,5.000000,*7F
$GPRMC,100525,A,4036.5989,N,07407.2613,W,42.76,249.00,220915,,,*1B
$PNAVA,,5.000000,*7F
$GPRMC,100526,A,4036.5944,N,07407.2765,W,42.76,248.00,220915,,,*18
$PNAVA,,5.000000,*7F
$GPRMC,100527,A,4036.5903,N,07407.2918,W,42.76,252.00,220915,,,*15
$PNAVA,,5.000000,*7F
$GPRMC,100528,A,4036.5864,N,07407.3072,W,42.76,252.00,220915,,,*1E
$PNAVA,,5.000000,*7F
$GPRMC,100529,A,4036.5829,N,07407.3213,W,42.76,252.00,220915,,,*13
$PNAVA,,5.000000,*7F
$GPRMC,100530,A,4036.5790,N,07407.3367,W,42.76,252.00,220915,,,*14
$PNAVA,,5.000000,*7F
$GPRMC,100531,A,4036.5752,N,07407.3522,W,42.76,252.00,220915,,,*1C
$PNAVA,,5.000000,*7F
$GPRMC,100532,A,4036.5715,N,07407.3678,W,42.76,253.00,220915,,,*11
$PNAVA,,5.000000,*7F
$GPRMC,100533,A,4036.5679,N,07407.3833,W,42.76,253.00,220915,,,*1A
$PNAVA,,5.000000,*7F
$GPRMC,100534,A,4036.5642,N,07407.3989,W,42.76,253.00,220915,,,*15
$PNAVA,,5.000000,*7F
$GPRMC,100535,A,4036.5610,N,07407.4131,W,42.76,253.00,220915,,,*1F
$PNAVA,,5.000000,*7F
$GPRMC,100536,A,4036.5573,N,07407.4286,W,42.76,253.00,220915,,,*15
$PNAVA,,5.000000,*7F
$GPRMC,100537,A,4036.5538,N,07407.4442,W,42.76,256.00,220915,,,*10
$PNAVA,,5.000000,*7F
$GPRMC,100538,A,4036.5508,N,07407.4600,W,42.76,256.00,220915,,,*18
$PNAVA,,5.000000,*7F
$GPRMC,100539,A,4036.5477,N,07407.4758,W,42.76,256.00,220915,,,*1C
$PNAVA,,5.000000,*7F
$GPRMC,100540,A,4036.5447,N,07407.4915,W,42.76,256.00,220915,,,*16
$PNAVA,,5.000000,*7F
$GPRMC,100541,A,4036.5420,N,07407.5058,W,42.76,256.00,220915,,,*17
$PNAVA,,5.000000,*7F
$GPRMC,100542,A,4036.5390,N,07407.5216,W,42.76,256.00,220915,,,*10
$PNAVA,,5.000000,*7F
$GPRMC,100543,A,4036.5360,N,07407.5374,W,42.76,256.00,220915,,,*1B
$PNAVA,,5.000000,*7F
$GPRMC,100544,A,4036.5333,N,07407.5533,W,42.76,258.00,220915,,,*11
$PNAVA,,5.000000,*7F
$GPRMC,100545,A,4036.5308,N,07407.5692,W,42.76,258.00,220915,,,*10
$PNAVA,,5.000000,*7F
$GPRMC,100546,A,4036.5282,N,07407.5851,W,42.76,258.00,220915,,,*11
$PNAVA,,5.000000,*7F
$GPRMC,100547,A,4036.5259,N,07407.5996,W,42.76,258.00,220915,,,*1C
$PNAVA,,5.000000,*7F
$GPRMC,100548,A,4036.5236,N,07407.6156,W,42.76,259.00,220915,,,*1C
$PNAVA,,5.000000,*7F
$GPRMC,100549,A,4036.5213,N,07407.6316,W,42.76,259.00,220915,,,*1C
$PNAVA,,5.000000,*7F
$GPRMC,100550,A,4036.5190,N,07407.6476,W,42.76,259.00,220915,,,*1D
$PNAVA,,5.000000,*7F
$GPRMC,100551,A,4036.5170,N,07407.6618,W,42.76,259.00,220915,,,*18
$PNAVA,,5.000000,*7F
$GPRMC,100552,A,4036.5153,N,07407.6763,W,42.76,262.00,220915,,,*1F
$PNAVA,,5.000000,*7F
$GPRMC,100553,A,4036.5137,N,07407.6910,W,42.76,262.00,220915,,,*16
$PNAVA,,5.000000,*7F
$GPRMC,100554,A,4036.5119,N,07407.7071,W,42.76,262.00,220915,,,*12
$PNAVA,,5.000000,*7F
$GPRMC,100555,A,4036.5100,N,07407.7232,W,42.76,262.00,220915,,,*1E
$PNAVA,,5.000000,*7F
$GPRMC,100556,A,4036.5083,N,07407.7393,W,42.76,264.00,220915,,,*1B
$PNAVA,,5.000000,*7F
$GPRMC,100557,A,4036.5070,N,07407.7555,W,42.76,264.00,220915,,,*1A
$PNAVA,,5.000000,*7F
$GPRMC,100558,A,4036.5057,N,07407.7717,W,42.76,264.00,220915,,,*14
$PNAVA,,5.000000,*7F
$GPRMC,100559,A,4036.5047,N,07407.7864,W,42.76,264.00,220915,,,*1F
$PNAVA,,5.000000,*7F
$GPRMC,100600,A,4036.5034,N,07407.8026,W,42.76,264.00,220915,,,*15
$PNAVA,,5.000000,*7F
$GPRMC,100602,A,4036.5021,N,07407.8188,W,42.76,264.00,220915,,,*16
$PNAVA,,5.000000,*7F
$GPRMC,100603,A,4036.5009,N,07407.8350,W,42.76,264.00,220915,,,*1A
$PNAVA,,5.000000,*7F
$GPRMC,100604,A,4036.4997,N,07407.8512,W,42.76,266.00,220915,,,*10
$PNAVA,,5.000000,*7F
$GPRMC,100605,A,4036.4988,N,07407.8674,W,42.76,266.00,220915,,,*1C
$PNAVA,,5.000000,*7F
$GPRMC,100606,A,4036.4980,N,07407.8821,W,42.76,266.00,220915,,,*19
$PNAVA,,5.000000,*7F
$GPRMC,100607,A,4036.4971,N,07407.8984,W,42.76,266.00,220915,,,*18
$PNAVA,,5.000000,*7F
$GPRMC,100608,A,4036.4962,N,07407.9146,W,42.76,266.00,220915,,,*12
$PNAVA,,5.000000,*7F
$GPRMC,100609,A,4036.4953,N,07407.9308,W,42.76,266.00,220915,,,*19
$PNAVA,,5.000000,*7F
$GPRMC,100610,A,4036.4944,N,07407.9471,W,42.76,266.00,220915,,,*1E
$PNAVA,,5.000000,*7F
$GPRMC,100611,A,4036.4935,N,07407.9633,W,42.76,266.00,220915,,,*1D
$PNAVA,,5.000000,*7F
$GPRMC,100612,A,4036.4927,N,07407.9781,W,42.76,266.00,220915,,,*15
$PNAVA,,5.000000,*7F
$GPRMC,100613,A,4036.4918,N,07407.9943,W,42.76,266.00,220915,,,*18
$PNAVA,,5.000000,*7F
$GPRMC,100614,A,4036.4909,N,07408.0105,W,42.76,266.00,220915,,,*13
$PNAVA,,5.000000,*7F
$GPRMC,100615,A,4036.4900,N,07408.0267,W,42.76,266.00,220915,,,*1C
$PNAVA,,5.000000,*7F
$GPRMC,100616,A,4036.4892,N,07408.0430,W,42.76,266.00,220915,,,*11
$PNAVA,,5.000000,*7F
$GPRMC,100617,A,4036.4884,N,07408.0592,W,42.76,266.00,220915,,,*1E
$PNAVA,,5.000000,*7F
$GPRMC,100618,A,4036.4877,N,07408.0740,W,42.76,266.00,220915,,,*10
$PNAVA,,5.000000,*7F
$GPRMC,100619,A,4036.4868,N,07408.0902,W,42.76,266.00,220915,,,*17
$PNAVA,,5.000000,*7F
$GPRMC,100620,A,4036.4861,N,07408.1065,W,42.76,266.00,220915,,,*1D
$PNAVA,,5.000000,*7F
$GPRMC,100621,A,4036.4853,N,07408.1227,W,42.76,266.00,220915,,,*19
$PNAVA,,5.000000,*7F
$GPRMC,100622,A,4036.4844,N,07408.1389,W,42.76,266.00,220915,,,*19
$PNAVA,,5.000000,*7F
$GPRMC,100623,A,4036.4837,N,07408.1552,W,42.76,266.00,220915,,,*1C
$PNAVA,,5.000000,*7F
$GPRMC,100624,A,4036.4829,N,07408.1700,W,42.76,266.00,220915,,,*11
$PNAVA,,5.000000,*7F
$GPRMC,100625,A,4036.4821,N,07408.1862,W,42.76,266.00,220915,,,*13
$PNAVA,,5.000000,*7F
$GPRMC,100626,A,4036.4813,N,07408.2024,W,42.76,266.00,220915,,,*18
$PNAVA,,5.000000,*7F
$GPRMC,100627,A,4036.4804,N,07408.2186,W,42.76,266.00,220915,,,*16
$PNAVA,,5.000000,*7F
$GPRMC,100628,A,4036.4796,N,07408.2349,W,42.76,266.00,220915,,,*1C
$PNAVA,,5.000000,*7F
$GPRMC,100629,A,4036.4787,N,07408.2511,W,42.76,266.00,220915,,,*16
$PNAVA,,5.000000,*7F
$GPRMC,100630,A,4036.4781,N,07408.2624,W,42.76,266.00,220915,,,*1D
$PNAVA,,5.000000,*7F
$GPRMC,100631,A,4036.4773,N,07408.2763,W,42.76,266.00,220915,,,*13
$PNAVA,,5.000000,*7F
$GPRMC,100632,A,4036.4764,N,07408.2925,W,42.76,266.00,220915,,,*1A
$PNAVA,,5.000000,*7F
$GPRMC,100633,A,4036.4755,N,07408.3087,W,42.76,266.00,220915,,,*19
$PNAVA,,5.000000,*7F
$GPRMC,100634,A,4036.4746,N,07408.3250,W,42.76,266.00,220915,,,*14
$PNAVA,,5.000000,*7F
$GPRMC,100635,A,4036.4737,N,07408.3412,W,42.76,266.00,220915,,,*13
$PNAVA,,5.000000,*7F
$GPRMC,100636,A,4036.4729,N,07408.3560,W,42.76,266.00,220915,,,*1B
$PNAVA,,5.000000,*7F
$GPRMC,100637,A,4036.4720,N,07408.3722,W,42.76,266.00,220915,,,*17
$PNAVA,,5.000000,*7F
$GPRMC,100638,A,4036.4711,N,07408.3884,W,42.76,266.00,220915,,,*19
$PNAVA,,5.000000,*7F
$GPRMC,100639,A,4036.4702,N,07408.4046,W,42.76,266.00,220915,,,*1B
$PNAVA,,5.000000,*7F
$GPRMC,100640,A,4036.4693,N,07408.4209,W,42.76,266.00,220915,,,*15
$PNAVA,,5.000000,*7F
$GPRMC,100641,A,4036.4684,N,07408.4371,W,42.76,266.00,220915,,,*1C
$PNAVA,,5.000000,*7F
$GPRMC,100642,A,4036.4675,N,07408.4518,W,42.76,266.00,220915,,,*18
$PNAVA,,5.000000,*7F
$GPRMC,100643,A,4036.4667,N,07408.4681,W,42.76,267.00,220915,,,*18
$PNAVA,,5.000000,*7F
$GPRMC,100644,A,4036.4660,N,07408.4844,W,42.76,267.00,220915,,,*1F
$PNAVA,,5.000000,*7F
$GPRMC,100645,A,4036.4653,N,07408.5006,W,42.76,267.00,220915,,,*11
$PNAVA,,5.000000,*7F
$GPRMC,100646,A,4036.4646,N,07408.5168,W,42.76,267.00,220915,,,*1F
$PNAVA,,5.000000,*7F
$GPRMC,100647,A,4036.4639,N,07408.5331,W,42.76,267.00,220915,,,*18
$PNAVA,,5.000000,*7F
$GPRMC,100648,A,4036.4632,N,07408.5479,W,42.76,267.00,220915,,,*17
$PNAVA,,5.000000,*7F
$GPRMC,100649,A,4036.4625,N,07408.5641,W,42.76,267.00,220915,,,*19
$PNAVA,,5.000000,*7F
$GPRMC,100650,A,4036.4619,N,07408.5803,W,42.76,267.00,220915,,,*16
$PNAVA,,5.000000,*7F
$GPRMC,100651,A,4036.4614,N,07408.5945,W,42.76,267.00,220915,,,*19
$PNAVA,,5.000000,*7F
$GPRMC,100652,A,4036.4608,N,07408.6107,W,42.76,274.00,220915,,,*18
$PNAVA,,5.000000,*7F
$GPRMC,100653,A,4036.4616,N,07408.6270,W,42.76,274.00,220915,,,*15
$PNAVA,,5.000000,*7F
$GPRMC,100654,A,4036.4623,N,07408.6417,W,42.76,274.00,220915,,,*13
$PNAVA,,5.000000,*7F
$GPRMC,100655,A,4036.4633,N,07408.6579,W,42.76,277.00,220915,,,*19
$PNAVA,,5.000000,*7F
$GPRMC,100656,A,4036.4648,N,07408.6741,W,42.76,277.00,220915,,,*1F
$PNAVA,,5.000000,*7F
$GPRMC,100657,A,4036.4663,N,07408.6903,W,42.76,277.00,220915,,,*1F
$PNAVA,,5.000000,*7F
$GPRMC,100658,A,4036.4681,N,07408.7064,W,42.76,282.00,220915,,,*1F
$PNAVA,,5.000000,*7F
$GPRMC,100659,A,4036.4707,N,07408.7223,W,42.76,282.00,220915,,,*10
$PNAVA,,5.000000,*7F
$GPRMC,100700,A,4036.4731,N,07408.7367,W,42.76,282.00,220915,,,*19
$PNAVA,,5.000000,*7F
$GPRMC,100701,A,4036.4759,N,07408.7525,W,42.76,286.00,220915,,,*12
$PNAVA,,5.000000,*7F
$GPRMC,100702,A,4036.4793,N,07408.7682,W,42.76,286.00,220915,,,*19
$PNAVA,,5.000000,*7F
$GPRMC,100703,A,4036.4826,N,07408.7838,W,42.76,286.00,220915,,,*16
$PNAVA,,5.000000,*7F
$GPRMC,100704,A,4036.4864,N,07408.7994,W,42.76,289.00,220915,,,*1F
$PNAVA,,5.000000,*7F
$GPRMC,100705,A,4036.4906,N,07408.8147,W,42.76,289.00,220915,,,*12
$PNAVA,,5.000000,*7F
$GPRMC,100706,A,4036.4943,N,07408.8286,W,42.76,289.00,220915,,,*1E
$PNAVA,,5.000000,*7F
$GPRMC,100707,A,4036.4991,N,07408.8436,W,42.76,295.00,220915,,,*10
$PNAVA,,5.000000,*7F
$GPRMC,100708,A,4036.5043,N,07408.8583,W,42.76,295.00,220915,,,*17
$PNAVA,,5.000000,*7F
$GPRMC,100709,A,4036.5096,N,07408.8730,W,42.76,295.00,220915,,,*14
$PNAVA,,5.000000,*7F
$GPRMC,100710,A,4036.5150,N,07408.8876,W,42.76,297.00,220915,,,*18
$PNAVA,,5.000000,*7F
$GPRMC,100711,A,4036.5206,N,07408.9022,W,42.76,297.00,220915,,,*11
$PNAVA,,5.000000,*7F
$GPRMC,100712,A,4036.5260,N,07408.9152,W,42.76,299.00,220915,,,*1A
$PNAVA,,5.000000,*7F
$GPRMC,100714,A,4036.5327,N,07408.9289,W,42.76,304.00,220915,,,*1E
$PNAVA,,5.000000,*7F
$GPRMC,100715,A,4036.5396,N,07408.9423,W,42.76,304.00,220915,,,*13
$PNAVA,,5.000000,*7F
$GPRMC,100716,A,4036.5466,N,07408.9557,W,42.76,304.00,220915,,,*1A
$PNAVA,,5.000000,*7F
$GPRMC,100717,A,4036.5538,N,07408.9689,W,42.76,307.00,220915,,,*12
$PNAVA,,5.000000,*7F
$GPRMC,100718,A,4036.5612,N,07408.9819,W,42.76,307.00,220915,,,*11
$PNAVA,,5.000000,*7F
$GPRMC,100719,A,4036.5667,N,07408.9915,W,42.76,297.00,220915,,,*17
$PNAVA,,5.000000,*7F
$GPRMC,100720,A,4036.5743,N,07409.0041,W,42.76,315.00,220915,,,*11
$PNAVA,,5.000000,*7F
$GPRMC,100721,A,4036.5830,N,07409.0155,W,42.76,315.00,220915,,,*1F
$PNAVA,,5.000000,*7F
$GPRMC,100722,A,4036.5916,N,07409.0272,W,42.76,314.00,220915,,,*1E
$PNAVA,,5.000000,*7F
$GPRMC,100723,A,4036.6002,N,07409.0389,W,42.76,314.00,220915,,,*15
$PNAVA,,5.000000,*7F
$GPRMC,100724,A,4036.6088,N,07409.0506,W,42.76,315.00,220915,,,*10
$PNAVA,,5.000000,*7F
$GPRMC,100725,A,4036.6168,N,07409.0610,W,42.76,315.00,220915,,,*1A
$PNAVA,,5.000000,*7F
$GPRMC,100726,A,4036.6256,N,07409.0725,W,42.76,315.00,220915,,,*10
$PNAVA,,5.000000,*7F
$GPRMC,100727,A,4036.6343,N,07409.0839,W,42.76,315.00,220915,,,*16
$PNAVA,,5.000000,*7F
$GPRMC,100728,A,4036.6431,N,07409.0954,W,42.76,315.00,220915,,,*11
$PNAVA,,5.000000,*7F
$GPRMC,100729,A,4036.6519,N,07409.1068,W,42.76,315.00,220915,,,*1C
$PNAVA,,5.000000,*7F
$GPRMC,100730,A,4036.6607,N,07409.1183,W,42.76,315.00,220915,,,*1C
$PNAVA,,5.000000,*7F
$GPRMC,100731,A,4036.6686,N,07409.1287,W,42.76,315.00,220915,,,*13
$PNAVA,,5.000000,*7F
$GPRMC,100732,A,4036.6774,N,07409.1402,W,42.76,315.00,220915,,,*17
$PNAVA,,5.000000,*7F
$GPRMC,100733,A,4036.6862,N,07409.1516,W,42.76,315.00,220915,,,*1A
$PNAVA,,5.000000,*7F
$GPRMC,100734,A,4036.6950,N,07409.1630,W,42.76,315.00,220915,,,*1A
$PNAVA,,5.000000,*7F
$GPRMC,100735,A,4036.7037,N,07409.1745,W,42.76,315.00,220915,,,*11
$PNAVA,,5.000000,*7F
$GPRMC,100736,A,4036.7125,N,07409.1859,W,42.76,315.00,220915,,,*12
$PNAVA,,5.000000,*7F
$GPRMC,100737,A,4036.7205,N,07409.1964,W,42.76,315.00,220915,,,*1D
$PNAVA,,5.000000,*7F
$GPRMC,100738,A,4036.7292,N,07409.2078,W,42.76,315.00,220915,,,*1B
$PNAVA,,5.000000,*7F
$GPRMC,100739,A,4036.7385,N,07409.2187,W,42.76,321.00,220915,,,*1B
$PNAVA,,5.000000,*7F
$GPRMC,100740,A,4036.7461,N,07409.2298,W,42.76,315.00,220915,,,*12
$PNAVA,,5.000000,*7F
$GPRMC,100741,A,4036.7549,N,07409.2413,W,42.76,315.00,220915,,,*1D
$PNAVA,,5.000000,*7F
$GPRMC,100742,A,4036.7637,N,07409.2528,W,42.76,315.00,220915,,,*1D
$PNAVA,,5.000000,*7F
$GPRMC,100743,A,4036.7717,N,07409.2632,W,42.76,315.00,220915,,,*17
$PNAVA,,5.000000,*7F
$GPRMC,100744,A,4036.7805,N,07409.2747,W,42.76,315.00,220915,,,*1F
$PNAVA,,5.000000,*7F
$GPRMC,100745,A,4036.7893,N,07409.2861,W,42.76,316.00,220915,,,*19
$PNAVA,,5.000000,*7F
$GPRMC,100746,A,4036.7982,N,07409.2973,W,42.76,316.00,220915,,,*19
$PNAVA,,5.000000,*7F
$GPRMC,100747,A,4036.8072,N,07409.3086,W,42.76,316.00,220915,,,*13
$PNAVA,,5.000000,*7F
$GPRMC,100748,A,4036.8161,N,07409.3199,W,42.76,316.00,220915,,,*10
$PNAVA,,5.000000,*7F
$GPRMC,100749,A,4036.8241,N,07409.3302,W,42.76,315.00,220915,,,*13
$PNAVA,,5.000000,*7F
$GPRMC,100750,A,4036.8329,N,07409.3417,W,42.76,315.00,220915,,,*17
$PNAVA,,5.000000,*7F
$GPRMC,100751,A,4036.8416,N,07409.3531,W,42.76,315.00,220915,,,*18
$PNAVA,,5.000000,*7F
$GPRMC,100752,A,4036.8504,N,07409.3646,W,42.76,315.00,220915,,,*1A
$PNAVA,,5.000000,*7F
$GPRMC,100753,A,4036.8592,N,07409.3760,W,42.76,315.00,220915,,,*11
$PNAVA,,5.000000,*7F
$GPRMC,100754,A,4036.8680,N,07409.3875,W,42.76,315.00,220915,,,*1D
$PNAVA,,5.000000,*7F
$GPRMC,100755,A,4036.8759,N,07409.3979,W,42.76,315.00,220915,,,*14
$PNAVA,,5.000000,*7F
$GPRMC,100756,A,4036.8843,N,07409.4085,W,42.76,317.00,220915,,,*1C
$PNAVA,,5.000000,*7F
$GPRMC,100757,A,4036.8933,N,07409.4196,W,42.76,317.00,220915,,,*18
$PNAVA,,5.000000,*7F
$GPRMC,100758,A,4036.9020,N,07409.4316,W,42.76,310.00,220915,,,*10
$PNAVA,,5.000000,*7F
$GPRMC,100759,A,4036.9106,N,07409.4427,W,42.76,333.00,220915,,,*10
$PNAVA,,5.000000,*7F
$GPRMC,100800,A,4036.9197,N,07409.4536,W,42.76,315.00,220915,,,*1E
$PNAVA,,5.000000,*7F
$GPRMC,100801,A,4036.9275,N,07409.4642,W,42.76,313.00,220915,,,*16
$PNAVA,,5.000000,*7F
$GPRMC,100802,A,4036.9361,N,07409.4759,W,42.76,313.00,220915,,,*1A
$PNAVA,,5.000000,*7F
$GPRMC,100803,A,4036.9446,N,07409.4877,W,42.76,313.00,220915,,,*1A
$PNAVA,,5.000000,*7F
$GPRMC,100804,A,4036.9531,N,07409.4995,W,42.76,313.00,220915,,,*11
$PNAVA,,5.000000,*7F
$GPRMC,100805,A,4036.9617,N,07409.5113,W,42.76,313.00,220915,,,*10
$PNAVA,,5.000000,*7F
$GPRMC,100806,A,4036.9702,N,07409.5230,W,42.76,313.00,220915,,,*14
$PNAVA,,5.000000,*7F
$GPRMC,100807,A,4036.9779,N,07409.5337,W,42.76,313.00,220915,,,*1F
$PNAVA,,5.000000,*7F
$GPRMC,100808,A,4036.9865,N,07409.5455,W,42.76,313.00,220915,,,*11
$PNAVA,,5.000000,*7F
$GPRMC,100809,A,4036.9949,N,07409.5574,W,42.76,313.00,220915,,,*1D
$PNAVA,,5.000000,*7F
$GPRMC,100810,A,4037.0031,N,07409.5696,W,42.76,311.00,220915,,,*16
$PNAVA,,5.000000,*7F
$GPRMC,100811,A,4037.0117,N,07409.5825,W,42.76,309.00,220915,,,*1D
$PNAVA,,5.000000,*7F
$GPRMC,100812,A,4037.0195,N,07409.5951,W,42.76,309.00,220915,,,*16
$PNAVA,,5.000000,*7F
$GPRMC,100813,A,4037.0267,N,07409.6065,W,42.76,309.00,220915,,,*14
$PNAVA,,5.000000,*7F
$GPRMC,100814,A,4037.0345,N,07409.6191,W,42.76,308.00,220915,,,*19
$PNAVA,,5.000000,*7F
$GPRMC,100815,A,4037.0422,N,07409.6318,W,42.76,308.00,220915,,,*1D
$PNAVA,,5.000000,*7F
$GPRMC,100816,A,4037.0499,N,07409.6445,W,42.76,308.00,220915,,,*11
$PNAVA,,5.000000,*7F
$GPRMC,100817,A,4037.0576,N,07409.6572,W,42.76,308.00,220915,,,*15
$PNAVA,,5.000000,*7F
$GPRMC,100818,A,4037.0653,N,07409.6700,W,42.76,308.00,220915,,,*19
$PNAVA,,5.000000,*7F
$GPRMC,100819,A,4037.0723,N,07409.6815,W,42.76,308.00,220915,,,*15
$PNAVA,,5.000000,*7F
$GPRMC,100820,A,4037.0801,N,07409.6943,W,42.76,308.00,220915,,,*12
$PNAVA,,5.000000,*7F
$GPRMC,100821,A,4037.0877,N,07409.7070,W,42.76,308.00,220915,,,*1A
$PNAVA,,5.000000,*7F
$GPRMC,100822,A,4037.0951,N,07409.7200,W,42.76,305.00,220915,,,*14
$PNAVA,,5.000000,*7F
$GPRMC,100823,A,4037.1021,N,07409.7334,W,42.76,305.00,220915,,,*1C
$PNAVA,,5.000000,*7F
$GPRMC,100824,A,4037.1092,N,07409.7468,W,42.76,305.00,220915,,,*1D
$PNAVA,,5.000000,*7F
$GPRMC,100826,A,4037.1155,N,07409.7589,W,42.76,305.00,220915,,,*1B
$PNAVA,,5.000000,*7F
$GPRMC,100827,A,4037.1226,N,07409.7724,W,42.76,305.00,220915,,,*18
$PNAVA,,5.000000,*7F
$GPRMC,100828,A,4037.1296,N,07409.7858,W,42.76,305.00,220915,,,*18
$PNAVA,,5.000000,*7F
$GPRMC,100829,A,4037.1364,N,07409.7993,W,42.76,303.00,220915,,,*15
$PNAVA,,5.000000,*7F
$GPRMC,100830,A,4037.1431,N,07409.8130,W,42.76,303.00,220915,,,*14
$PNAVA,,5.000000,*7F
$GPRMC,100831,A,4037.1498,N,07409.8266,W,42.76,303.00,220915,,,*16
$PNAVA,,5.000000,*7F
$GPRMC,100832,A,4037.1560,N,07409.8390,W,42.76,303.00,220915,,,*1B
$PNAVA,,5.000000,*7F
$GPRMC,100833,A,4037.1627,N,07409.8527,W,42.76,303.00,220915,,,*10
$PNAVA,,5.000000,*7F
$GPRMC,100834,A,4037.1694,N,07409.8663,W,42.76,303.00,220915,,,*1C
$PNAVA,,5.000000,*7F
$GPRMC,100835,A,4037.1757,N,07409.8804,W,42.76,300.00,220915,,,*1F
$PNAVA,,5.000000,*7F
$GPRMC,100836,A,4037.1819,N,07409.8945,W,42.76,300.00,220915,,,*1D
$PNAVA,,5.000000,*7F
$GPRMC,100837,A,4037.1881,N,07409.9085,W,42.76,300.00,220915,,,*19
$PNAVA,,5.000000,*7F
$GPRMC,100838,A,4037.1937,N,07409.9213,W,42.76,300.00,220915,,,*17
$PNAVA,,5.000000,*7F
$GPRMC,100839,A,4037.1999,N,07409.9354,W,42.76,300.00,220915,,,*10
$PNAVA,,5.000000,*7F
$GPRMC,100840,A,4037.2048,N,07409.9466,W,42.76,299.00,220915,,,*1F
$PNAVA,,5.000000,*7F
$GPRMC,100841,A,4037.2107,N,07409.9608,W,42.76,299.00,220915,,,*1E
$PNAVA,,5.000000,*7F
$GPRMC,100842,A,4037.2167,N,07409.9751,W,42.76,299.00,220915,,,*16
$PNAVA,,5.000000,*7F
$GPRMC,100843,A,4037.2227,N,07409.9893,W,42.76,299.00,220915,,,*11
$PNAVA,,5.000000,*7F
$GPRMC,100844,A,4037.2281,N,07410.0023,W,42.76,299.00,220915,,,*18
$PNAVA,,5.000000,*7F
$GPRMC,100845,A,4037.2341,N,07410.0166,W,42.76,299.00,220915,,,*14
$PNAVA,,5.000000,*7F
$GPRMC,100846,A,4037.2401,N,07410.0308,W,42.76,299.00,220915,,,*1E
$PNAVA,,5.000000,*7F
$GPRMC,100847,A,4037.2461,N,07410.0450,W,42.76,299.00,220915,,,*13
$PNAVA,,5.000000,*7F
$GPRMC,100848,A,4037.2520,N,07410.0593,W,42.76,299.00,220915,,,*16
$PNAVA,,5.000000,*7F
$GPRMC,100849,A,4037.2572,N,07410.0741,W,42.76,293.00,220915,,,*17
$PNAVA,,5.000000,*7F
$GPRMC,100850,A,4037.2617,N,07410.0877,W,42.76,293.00,220915,,,*15
$PNAVA,,5.000000,*7F
$GPRMC,100851,A,4037.2657,N,07410.1030,W,42.76,287.00,220915,,,*1F
$PNAVA,,5.000000,*7F
$GPRMC,100852,A,4037.2693,N,07410.1186,W,42.76,287.00,220915,,,*18
$PNAVA,,5.000000,*7F
$GPRMC,100853,A,4037.2725,N,07410.1323,W,42.76,286.00,220915,,,*19
$PNAVA,,5.000000,*7F
$GPRMC,100854,A,4037.2755,N,07410.1478,W,42.76,282.00,220915,,,*14
$PNAVA,,5.000000,*7F
$GPRMC,100855,A,4037.2781,N,07410.1637,W,42.76,282.00,220915,,,*15
$PNAVA,,5.000000,*7F
$GPRMC,100856,A,4037.2805,N,07410.1782,W,42.76,282.00,220915,,,*1A
$PNAVA,,5.000000,*7F
$GPRMC,100857,A,4037.2830,N,07410.1941,W,42.76,279.00,220915,,,*18
$PNAVA,,5.000000,*7F
$GPRMC,100858,A,4037.2850,N,07410.2101,W,42.76,279.00,220915,,,*1E
$PNAVA,,5.000000,*7F
$GPRMC,100859,A,4037.2869,N,07410.2262,W,42.76,279.00,220915,,,*13
$PNAVA,,5.000000,*7F
$GPRMC,100900,A,4037.2889,N,07410.2423,W,42.76,279.00,220915,,,*13
$PNAVA,,5.000000,*7F
$GPRMC,100901,A,4037.2908,N,07410.2584,W,42.76,279.00,220915,,,*16
$PNAVA,,5.000000,*7F
$GPRMC,100902,A,4037.2926,N,07410.2730,W,42.76,279.00,220915,,,*14
$PNAVA,,5.000000,*7F
$GPRMC,100903,A,4037.2945,N,07410.2891,W,42.76,279.00,220915,,,*14
$PNAVA,,5.000000,*7F
$GPRMC,100904,A,4037.2967,N,07410.3051,W,42.76,281.00,220915,,,*11
$PNAVA,,5.000000,*7F
$GPRMC,100905,A,4037.2991,N,07410.3211,W,42.76,281.00,220915,,,*1F
$PNAVA,,5.000000,*7F
$GPRMC,100906,A,4037.3016,N,07410.3370,W,42.76,281.00,220915,,,*1D
$PNAVA,,5.000000,*7F
$GPRMC,100907,A,4037.3045,N,07410.3528,W,42.76,289.00,220915,,,*19
$PNAVA,,5.000000,*7F
$GPRMC,100908,A,4037.3081,N,07410.3669,W,42.76,289.00,220915,,,*18
$PNAVA,,5.000000,*7F
$GPRMC,100909,A,4037.3120,N,07410.3822,W,42.76,289.00,220915,,,*12
$PNAVA,,5.000000,*7F
$GPRMC,100910,A,4037.3166,N,07410.3973,W,42.76,292.00,220915,,,*17
$PNAVA,,5.000000,*7F
$GPRMC,100911,A,4037.3219,N,07410.4120,W,42.76,297.00,220915,,,*11
$PNAVA,,5.000000,*7F
$GPRMC,100912,A,4037.3275,N,07410.4266,W,42.76,297.00,220915,,,*19
$PNAVA,,5.000000,*7F
$GPRMC,100913,A,4037.3331,N,07410.4411,W,42.76,297.00,220915,,,*1F
$PNAVA,,5.000000,*7F
$GPRMC,100914,A,4037.3387,N,07410.4539,W,42.76,304.00,220915,,,*15
$PNAVA,,5.000000,*7F
$GPRMC,100915,A,4037.3456,N,07410.4674,W,42.76,304.00,220915,,,*15
$PNAVA,,5.000000,*7F
$GPRMC,100916,A,4037.3525,N,07410.4809,W,42.76,304.00,220915,,,*17
$PNAVA,,5.000000,*7F
$GPRMC,100917,A,4037.3600,N,07410.4939,W,42.76,308.00,220915,,,*1C
$PNAVA,,5.000000,*7F
$GPRMC,100918,A,4037.3676,N,07410.5066,W,42.76,308.00,220915,,,*10
$PNAVA,,5.000000,*7F
$GPRMC,100919,A,4037.3755,N,07410.5191,W,42.76,310.00,220915,,,*11
$PNAVA,,5.000000,*7F
$GPRMC,100920,A,4037.3828,N,07410.5304,W,42.76,310.00,220915,,,*10
$PNAVA,,5.000000,*7F
$GPRMC,100921,A,4037.3919,N,07410.5413,W,42.76,318.00,220915,,,*1B
$PNAVA,,5.000000,*7F
$GPRMC,100922,A,4037.4012,N,07410.5522,W,42.76,318.00,220915,,,*1E
$PNAVA,,5.000000,*7F
$GPRMC,100923,A,4037.4105,N,07410.5628,W,42.76,321.00,220915,,,*1B
$PNAVA,,5.000000,*7F
$GPRMC,100924,A,4037.4201,N,07410.5730,W,42.76,321.00,220915,,,*13
$PNAVA,,5.000000,*7F
$GPRMC,100925,A,4037.4297,N,07410.5833,W,42.76,321.00,220915,,,*11
$PNAVA,,5.000000,*7F
$GPRMC,100926,A,4037.4384,N,07410.5926,W,42.76,321.00,220915,,,*14
$PNAVA,,5.000000,*7F
$GPRMC,100927,A,4037.4480,N,07410.6029,W,42.76,321.00,220915,,,*13
$PNAVA,,5.000000,*7F
$GPRMC,100928,A,4037.4576,N,07410.6132,W,42.76,321.00,220915,,,*1F
$PNAVA,,5.000000,*7F
$GPRMC,100929,A,4037.4672,N,07410.6235,W,42.76,321.00,220915,,,*1D
$PNAVA,,5.000000,*7F
$GPRMC,100930,A,4037.4767,N,07410.6337,W,42.76,321.00,220915,,,*13
$PNAVA,,5.000000,*7F
$GPRMC,100931,A,4037.4863,N,07410.6440,W,42.76,321.00,220915,,,*1E
$PNAVA,,5.000000,*7F
$GPRMC,100932,A,4037.4950,N,07410.6534,W,42.76,321.00,220915,,,*1E
$PNAVA,,5.000000,*7F
$GPRMC,100933,A,4037.5046,N,07410.6636,W,42.76,323.00,220915,,,*13
$PNAVA,,5.000000,*7F
$GPRMC,100934,A,4037.5146,N,07410.6732,W,42.76,325.00,220915,,,*16
$PNAVA,,5.000000,*7F
$GPRMC,100935,A,4037.5225,N,07410.6815,W,42.76,317.00,220915,,,*1A
$PNAVA,,5.000000,*7F
$GPRMC,100936,A,4037.5316,N,07410.6926,W,42.76,317.00,220915,,,*19
$PNAVA,,5.000000,*7F
$GPRMC,100937,A,4037.5406,N,07410.7036,W,42.76,317.00,220915,,,*17
$PNAVA,,5.000000,*7F
$GPRMC,100939,A,4037.5488,N,07410.7137,W,42.76,317.00,220915,,,*1F
$PNAVA,,5.000000,*7F
$GPRMC,100940,A,4037.5575,N,07410.7252,W,42.76,312.00,220915,,,*17
$PNAVA,,5.000000,*7F
$GPRMC,100941,A,4037.5658,N,07410.7373,W,42.76,312.00,220915,,,*18
$PNAVA,,5.000000,*7F
$GPRMC,100942,A,4037.5742,N,07410.7494,W,42.76,312.00,220915,,,*1F
$PNAVA,,5.000000,*7F
$GPRMC,100943,A,4037.5824,N,07410.7614,W,42.76,312.00,220915,,,*1B
$PNAVA,,5.000000,*7F
$GPRMC,100944,A,4037.5904,N,07410.7738,W,42.76,308.00,220915,,,*1B
$PNAVA,,5.000000,*7F
$GPRMC,100945,A,4037.5965,N,07410.7845,W,42.76,304.00,220915,,,*14
$PNAVA,,5.000000,*7F
$GPRMC,100946,A,4037.6040,N,07410.7975,W,42.76,308.00,220915,,,*14
$PNAVA,,5.000000,*7F
$GPRMC,100947,A,4037.6116,N,07410.8103,W,42.76,309.00,220915,,,*10
$PNAVA,,5.000000,*7F
$GPRMC,100948,A,4037.6193,N,07410.8230,W,42.76,309.00,220915,,,*11
$PNAVA,,5.000000,*7F
$GPRMC,100949,A,4037.6271,N,07410.8357,W,42.76,309.00,220915,,,*1F
$PNAVA,,5.000000,*7F
$GPRMC,100950,A,4037.6348,N,07410.8484,W,42.76,309.00,220915,,,*15
$PNAVA,,5.000000,*7F
$GPRMC,100951,A,4037.6418,N,07410.8599,W,42.76,309.00,220915,,,*1B
$PNAVA,,5.000000,*7F
$GPRMC,100952,A,4037.6496,N,07410.8726,W,42.76,309.00,220915,,,*18
$PNAVA,,5.000000,*7F
$GPRMC,100953,A,4037.6574,N,07410.8852,W,42.76,309.00,220915,,,*18
$PNAVA,,5.000000,*7F
$GPRMC,100954,A,4037.6652,N,07410.8979,W,42.76,309.00,220915,,,*10
$PNAVA,,5.000000,*7F
$GPRMC,100955,A,4037.6726,N,07410.9109,W,42.76,304.00,220915,,,*10
$PNAVA,,5.000000,*7F
$GPRMC,100956,A,4037.6799,N,07410.9241,W,42.76,308.00,220915,,,*14
$PNAVA,,5.000000,*7F
$GPRMC,100957,A,4037.6868,N,07410.9357,W,42.76,308.00,220915,,,*12
$PNAVA,,5.000000,*7F
$GPRMC,100958,A,4037.6943,N,07410.9486,W,42.76,303.00,220915,,,*15
$PNAVA,,5.000000,*7F
$GPRMC,100959,A,4037.7012,N,07410.9622,W,42.76,303.00,220915,,,*14
$PNAVA,,5.000000,*7F
$GPRMC,101000,A,4037.7080,N,07410.9757,W,42.76,303.00,220915,,,*18
$PNAVA,,5.000000,*7F
$GPRMC,101001,A,4037.7148,N,07410.9893,W,42.76,303.00,220915,,,*1B
$PNAVA,,5.000000,*7F
$GPRMC,101002,A,4037.7216,N,07411.0029,W,42.76,303.00,220915,,,*11
$PNAVA,,5.000000,*7F
$GPRMC,101003,A,4037.7278,N,07411.0152,W,42.76,303.00,220915,,,*15
$PNAVA,,5.000000,*7F
$GPRMC,101004,A,4037.7346,N,07411.0288,W,42.76,303.00,220915,,,*1A
$PNAVA,,5.000000,*7F
$GPRMC,101005,A,4037.7404,N,07411.0403,W,42.76,303.00,220915,,,*1F
$PNAVA,,5.000000,*7F
$GPRMC,101006,A,4037.7471,N,07411.0539,W,42.76,303.00,220915,,,*16
$PNAVA,,5.000000,*7F
$GPRMC,101007,A,4037.7540,N,07411.0675,W,42.76,303.00,220915,,,*1F
$PNAVA,,5.000000,*7F
$GPRMC,101008,A,4037.7608,N,07411.0811,W,42.76,303.00,220915,,,*13
$PNAVA,,5.000000,*7F
$GPRMC,101009,A,4037.7669,N,07411.0935,W,42.76,303.00,220915,,,*12
$PNAVA,,5.000000,*7F
$GPRMC,101010,A,4037.7737,N,07411.1070,W,42.76,303.00,220915,,,*19
$PNAVA,,5.000000,*7F
$GPRMC,101011,A,4037.7805,N,07411.1206,W,42.76,303.00,220915,,,*15
$PNAVA,,5.000000,*7F
$GPRMC,101012,A,4037.7873,N,07411.1343,W,42.76,303.00,220915,,,*17
$PNAVA,,5.000000,*7F
$GPRMC,101013,A,4037.7941,N,07411.1478,W,42.76,303.00,220915,,,*19
$PNAVA,,5.000000,*7F
$GPRMC,101014,A,4037.8009,N,07411.1614,W,42.76,303.00,220915,,,*1C
$PNAVA,,5.000000,*7F
$GPRMC,101015,A,4037.8073,N,07411.1736,W,42.76,305.00,220915,,,*17
$PNAVA,,5.000000,*7F
$GPRMC,101016,A,4037.8143,N,07411.1871,W,42.76,301.00,220915,,,*1E
$PNAVA,,5.000000,*7F
$GPRMC,101017,A,4037.8210,N,07411.2006,W,42.76,305.00,220915,,,*15
$PNAVA,,5.000000,*7F
$GPRMC,101018,A,4037.8281,N,07411.2141,W,42.76,305.00,220915,,,*10
$PNAVA,,5.000000,*7F
$GPRMC,101019,A,4037.8351,N,07411.2274,W,42.76,305.00,220915,,,*18
$PNAVA,,5.000000,*7F
$GPRMC,101020,A,4037.8421,N,07411.2408,W,42.76,305.00,220915,,,*1F
$PNAVA,,5.000000,*7F
$GPRMC,101021,A,4037.8485,N,07411.2530,W,42.76,305.00,220915,,,*1A
$PNAVA,,5.000000,*7F
$GPRMC,101022,A,4037.8555,N,07411.2664,W,42.76,305.00,220915,,,*17
$PNAVA,,5.000000,*7F
$GPRMC,101023,A,4037.8625,N,07411.2798,W,42.76,305.00,220915,,,*10
$PNAVA,,5.000000,*7F
$GPRMC,101024,A,4037.8695,N,07411.2931,W,42.76,305.00,220915,,,*11
$PNAVA,,5.000000,*7F
$GPRMC,101025,A,4037.8767,N,07411.3064,W,42.76,305.00,220915,,,*14
$PNAVA,,5.000000,*7F
$GPRMC,101026,A,4037.8839,N,07411.3197,W,42.76,305.00,220915,,,*1E
$PNAVA,,5.000000,*7F
$GPRMC,101027,A,4037.8904,N,07411.3317,W,42.76,305.00,220915,,,*1A
$PNAVA,,5.000000,*7F
$GPRMC,101028,A,4037.8976,N,07411.3449,W,42.76,305.00,220915,,,*1C
$PNAVA,,5.000000,*7F
$GPRMC,101029,A,4037.9049,N,07411.3584,W,42.76,305.00,220915,,,*19
$PNAVA,,5.000000,*7F
$GPRMC,101030,A,4037.9120,N,07411.3714,W,42.76,305.00,220915,,,*14
$PNAVA,,5.000000,*7F
$GPRMC,101031,A,4037.9192,N,07411.3847,W,42.76,305.00,220915,,,*15
$PNAVA,,5.000000,*7F
$GPRMC,101032,A,4037.9264,N,07411.3979,W,42.76,305.00,220915,,,*10
$PNAVA,,5.000000,*7F
$GPRMC,101033,A,4037.9328,N,07411.4101,W,42.76,305.00,220915,,,*18
$PNAVA,,5.000000,*7F
$GPRMC,101034,A,4037.9399,N,07411.4234,W,42.76,305.00,220915,,,*10
$PNAVA,,5.000000,*7F
$GPRMC,101035,A,4037.9469,N,07411.4368,W,42.76,305.00,220915,,,*11
$PNAVA,,5.000000,*7F
$GPRMC,101036,A,4037.9540,N,07411.4502,W,42.76,305.00,220915,,,*12
$PNAVA,,5.000000,*7F
$GPRMC,101037,A,4037.9610,N,07411.4635,W,42.76,305.00,220915,,,*12
$PNAVA,,5.000000,*7F
$GPRMC,101038,A,4037.9681,N,07411.4769,W,42.76,305.00,220915,,,*1D
$PNAVA,,5.000000,*7F
$GPRMC,101039,A,4037.9748,N,07411.4896,W,42.76,305.00,220915,,,*17
$PNAVA,,5.000000,*7F
$GPRMC,101040,A,4037.9816,N,07411.5024,W,42.76,305.00,220915,,,*1D
$PNAVA,,5.000000,*7F
$GPRMC,101041,A,4037.9886,N,07411.5157,W,42.76,305.00,220915,,,*10
$PNAVA,,5.000000,*7F
$GPRMC,101042,A,4037.9957,N,07411.5291,W,42.76,305.00,220915,,,*17
$PNAVA,,5.000000,*7F
$GPRMC,101043,A,4038.0009,N,07411.5389,W,42.76,305.00,220915,,,*1A
$PNAVA,,5.000000,*7F
$GPRMC,101044,A,4038.0077,N,07411.5519,W,42.76,305.00,220915,,,*1B
$PNAVA,,5.000000,*7F
$GPRMC,101045,A,4038.0141,N,07411.5641,W,42.76,305.00,220915,,,*10
$PNAVA,,5.000000,*7F
$GPRMC,101046,A,4038.0211,N,07411.5775,W,42.76,305.00,220915,,,*13
$PNAVA,,5.000000,*7F
$GPRMC,101047,A,4038.0282,N,07411.5909,W,42.76,305.00,220915,,,*1D
$PNAVA,,5.000000,*7F
$GPRMC,101048,A,4038.0352,N,07411.6043,W,42.76,305.00,220915,,,*1A
$PNAVA,,5.000000,*7F
$GPRMC,101049,A,4038.0422,N,07411.6177,W,42.76,305.00,220915,,,*1D
$PNAVA,,5.000000,*7F
$GPRMC,101050,A,4038.0492,N,07411.6311,W,42.76,305.00,220915,,,*1C
$PNAVA,,5.000000,*7F
$GPRMC,101052,A,4038.0556,N,07411.6432,W,42.76,305.00,220915,,,*11
$PNAVA,,5.000000,*7F
$GPRMC,101053,A,4038.0627,N,07411.6565,W,42.76,305.00,220915,,,*16
$PNAVA,,5.000000,*7F
$GPRMC,101054,A,4038.0699,N,07411.6698,W,42.76,305.00,220915,,,*15
$PNAVA,,5.000000,*7F
$GPRMC,101055,A,4038.0770,N,07411.6831,W,42.76,305.00,220915,,,*1F
$PNAVA,,5.000000,*7F
$GPRMC,101056,A,4038.0841,N,07411.6964,W,42.76,305.00,220915,,,*10
$PNAVA,,5.000000,*7F
$GPRMC,101057,A,4038.0912,N,07411.7097,W,42.76,305.00,220915,,,*12
$PNAVA,,5.000000,*7F
$GPRMC,101058,A,4038.0977,N,07411.7218,W,42.76,305.00,220915,,,*1B
$PNAVA,,5.000000,*7F
$GPRMC,101059,A,4038.1048,N,07411.7351,W,42.76,305.00,220915,,,*12
$PNAVA,,5.000000,*7F
$GPRMC,101100,A,4038.1110,N,07411.7466,W,42.76,305.00,220915,,,*10
$PNAVA,,5.000000,*7F
$GPRMC,101101,A,4038.1181,N,07411.7598,W,42.76,305.00,220915,,,*19
$PNAVA,,5.000000,*7F
$GPRMC,101102,A,4038.1253,N,07411.7731,W,42.76,305.00,220915,,,*17
$PNAVA,,5.000000,*7F
$GPRMC,101103,A,4038.1325,N,07411.7863,W,42.76,305.00,220915,,,*1E
$PNAVA,,5.000000,*7F
$GPRMC,101104,A,4038.1389,N,07411.7985,W,42.76,305.00,220915,,,*16
$PNAVA,,5.000000,*7F
$GPRMC,101105,A,4038.1460,N,07411.8118,W,42.76,305.00,220915,,,*14
$PNAVA,,5.000000,*7F
$GPRMC,101106,A,4038.1527,N,07411.8249,W,42.76,304.00,220915,,,*13
$PNAVA,,5.000000,*7F
$GPRMC,101107,A,4038.1597,N,07411.8384,W,42.76,304.00,220915,,,*19
$PNAVA,,5.000000,*7F
$GPRMC,101108,A,4038.1667,N,07411.8518,W,42.76,304.00,220915,,,*19
$PNAVA,,5.000000,*7F
$GPRMC,101109,A,4038.1736,N,07411.8653,W,42.76,304.00,220915,,,*11
$PNAVA,,5.000000,*7F
$GPRMC,101110,A,4038.1799,N,07411.8775,W,42.76,304.00,220915,,,*19
$PNAVA,,5.000000,*7F
$GPRMC,101111,A,4038.1868,N,07411.8906,W,42.76,305.00,220915,,,*12
$PNAVA,,5.000000,*7F
$GPRMC,101112,A,4038.1938,N,07411.9039,W,42.76,305.00,220915,,,*11
$PNAVA,,5.000000,*7F
$GPRMC,101113,A,4038.2010,N,07411.9172,W,42.76,305.00,220915,,,*1E
$PNAVA,,5.000000,*7F
$GPRMC,101114,A,4038.2081,N,07411.9305,W,42.76,305.00,220915,,,*13
$PNAVA,,5.000000,*7F
$GPRMC,101115,A,4038.2152,N,07411.9438,W,42.76,305.00,220915,,,*14
$PNAVA,,5.000000,*7F
$GPRMC,101116,A,4038.2217,N,07411.9559,W,42.76,305.00,220915,,,*13
$PNAVA,,5.000000,*7F
$GPRMC,101117,A,4038.2288,N,07411.9692,W,42.76,305.00,220915,,,*10
$PNAVA,,5.000000,*7F
$GPRMC,101118,A,4038.2363,N,07411.9821,W,42.76,308.00,220915,,,*10
$PNAVA,,5.000000,*7F
$GPRMC,101119,A,4038.2440,N,07411.9948,W,42.76,308.00,220915,,,*19
$PNAVA,,5.000000,*7F
$GPRMC,101120,A,4038.2517,N,07412.0076,W,42.76,308.00,220915,,,*1E
$PNAVA,,5.000000,*7F
$GPRMC,101121,A,4038.2597,N,07412.0200,W,42.76,311.00,220915,,,*1C
$PNAVA,,5.000000,*7F
$GPRMC,101122,A,4038.2672,N,07412.0311,W,42.76,311.00,220915,,,*16
$PNAVA,,5.000000,*7F
$GPRMC,101123,A,4038.2753,N,07412.0433,W,42.76,311.00,220915,,,*12
$PNAVA,,5.000000,*7F
$GPRMC,101124,A,4038.2835,N,07412.0554,W,42.76,311.00,220915,,,*1A
$PNAVA,,5.000000,*7F
$GPRMC,101125,A,4038.2918,N,07412.0676,W,42.76,311.00,220915,,,*16
$PNAVA,,5.000000,*7F
$GPRMC,101126,A,4038.3000,N,07412.0797,W,42.76,311.00,220915,,,*1A
$PNAVA,,5.000000,*7F
$GPRMC,101127,A,4038.3082,N,07412.0919,W,42.76,311.00,220915,,,*19
$PNAVA,,5.000000,*7F
$GPRMC,101128,A,4038.3156,N,07412.1030,W,42.76,311.00,220915,,,*1D
$PNAVA,,5.000000,*7F
$GPRMC,101129,A,4038.3239,N,07412.1150,W,42.76,312.00,220915,,,*12
$PNAVA,,5.000000,*7F
$GPRMC,101130,A,4038.3323,N,07412.1270,W,42.76,312.00,220915,,,*11
$PNAVA,,5.000000,*7F
$GPRMC,101131,A,4038.3407,N,07412.1390,W,42.76,312.00,220915,,,*1E
$PNAVA,,5.000000,*7F
$GPRMC,101132,A,4038.3490,N,07412.1510,W,42.76,312.00,220915,,,*1D
