$PNAVA,,5.000000,*7F
$GPRMC,100001,A,3406.6007,N,11749.5919,W,0.00,280.00,220915,,,*2A
$PNAVA,,5.000000,*7F
$GPRMC,100002,A,3406.6007,N,11749.5919,W,0.00,280.00,220915,,,*29
$PNAVA,,5.000000,*7F
$GPRMC,100003,A,3406.6006,N,11749.5915,W,9.72,280.00,220915,,,*29
$PNAVA,,5.000000,*7F
$GPRMC,100004,A,3406.6011,N,11749.5952,W,9.72,280.00,220915,,,*2B
$PNAVA,,5.000000,*7F
$GPRMC,100005,A,3406.6016,N,11749.5985,W,9.72,280.00,220915,,,*27
$PNAVA,,5.000000,*7F
$GPRMC,100006,A,3406.6022,N,11749.6021,W,9.72,280.00,220915,,,*27
$PNAVA,,5.000000,*7F
$GPRMC,100007,A,3406.6027,N,11749.6058,W,9.72,280.00,220915,,,*2D
$PNAVA,,5.000000,*7F
$GPRMC,100008,A,3406.6032,N,11749.6095,W,9.72,280.00,220915,,,*27
$PNAVA,,5.000000,*7F
$GPRMC,100009,A,3406.6037,N,11749.6132,W,9.72,280.00,220915,,,*2F
$PNAVA,,5.000000,*7F
$GPRMC,100010,A,3406.6043,N,11749.6169,W,9.72,280.00,220915,,,*2A
$PNAVA,,5.000000,*7F
$GPRMC,100011,A,3406.6048,N,11749.6202,W,9.72,281.00,220915,,,*2F
$PNAVA,,5.000000,*7F
$GPRMC,100012,A,3406.6053,N,11749.6238,W,9.72,281.00,220915,,,*2F
$PNAVA,,5.000000,*7F
$GPRMC,100013,A,3406.6059,N,11749.6275,W,9.72,281.00,220915,,,*2D
$PNAVA,,5.000000,*7F
$GPRMC,100014,A,3406.6065,N,11749.6312,W,9.72,281.00,220915,,,*25
$PNAVA,,5.000000,*7F
$GPRMC,100015,A,3406.6066,N,11749.6349,W,9.72,264.00,220915,,,*22
$PNAVA,,5.000000,*7F
$GPRMC,100016,A,3406.6063,N,11749.6386,W,9.72,264.00,220915,,,*27
$PNAVA,,5.000000,*7F
$GPRMC,100017,A,3406.6060,N,11749.6420,W,9.72,264.00,220915,,,*2E
$PNAVA,,5.000000,*7F
$GPRMC,100018,A,3406.6057,N,11749.6457,W,9.72,264.00,220915,,,*25
$PNAVA,,5.000000,*7F
$GPRMC,100019,A,3406.6054,N,11749.6494,W,9.72,264.00,220915,,,*28
$PNAVA,,5.000000,*7F
$GPRMC,100020,A,3406.6051,N,11749.6531,W,9.72,264.00,220915,,,*29
$PNAVA,,5.000000,*7F
$GPRMC,100021,A,3406.6048,N,11749.6568,W,9.72,264.00,220915,,,*2C
$PNAVA,,5.000000,*7F
$GPRMC,100022,A,3406.6044,N,11749.6606,W,9.72,259.00,220915,,,*26
$PNAVA,,5.000000,*7F
$GPRMC,100023,A,3406.6039,N,11749.6639,W,9.72,259.00,220915,,,*21
$PNAVA,,5.000000,*7F
$GPRMC,100024,A,3406.6034,N,11749.6675,W,9.72,259.00,220915,,,*23
$PNAVA,,5.000000,*7F
$GPRMC,100025,A,3406.6028,N,11749.6712,W,9.72,259.00,220915,,,*2F
$PNAVA,,5.000000,*7F
$GPRMC,100026,A,3406.6022,N,11749.6748,W,9.72,259.00,220915,,,*29
$PNAVA,,5.000000,*7F
$GPRMC,100027,A,3406.6017,N,11749.6785,W,9.72,259.00,220915,,,*2F
$PNAVA,,5.000000,*7F
$GPRMC,100028,A,3406.6011,N,11749.6822,W,9.72,259.00,220915,,,*24
$PNAVA,,5.000000,*7F
$GPRMC,100029,A,3406.6006,N,11749.6856,W,9.72,259.00,220915,,,*20
$PNAVA,,5.000000,*7F
$GPRMC,100030,A,3406.6001,N,11749.6892,W,9.72,259.00,220915,,,*27
$PNAVA,,5.000000,*7F
$GPRMC,100031,A,3406.5995,N,11749.6928,W,9.72,259.00,220915,,,*21
$PNAVA,,5.000000,*7F
$GPRMC,100032,A,3406.6077,N,11749.6973,W,31.10,346.00,220915,,,*1A
$PNAVA,,5.000000,*7F
$GPRMC,100033,A,3406.6167,N,11749.7002,W,31.10,346.00,220915,,,*15
$PNAVA,,5.000000,*7F
$GPRMC,100034,A,3406.6256,N,11749.7032,W,31.10,342.00,220915,,,*14
$PNAVA,,5.000000,*7F
$GPRMC,100035,A,3406.6337,N,11749.7063,W,31.10,342.00,220915,,,*17
$PNAVA,,5.000000,*7F
$GPRMC,100036,A,3406.6425,N,11749.7098,W,31.10,342.00,220915,,,*14
$PNAVA,,5.000000,*7F
$GPRMC,100037,A,3406.6513,N,11749.7132,W,31.10,342.00,220915,,,*10
$PNAVA,,5.000000,*7F
$GPRMC,100038,A,3406.6601,N,11749.7166,W,31.10,342.00,220915,,,*1E
$PNAVA,,5.000000,*7F
$GPRMC,100039,A,3406.6693,N,11749.7190,W,31.10,349.00,220915,,,*16
$PNAVA,,5.000000,*7F
$GPRMC,100040,A,3406.6782,N,11749.7211,W,31.10,349.00,220915,,,*13
$PNAVA,,5.000000,*7F
$GPRMC,100041,A,3406.6865,N,11749.7230,W,31.10,349.00,220915,,,*17
$PNAVA,,5.000000,*7F
$GPRMC,100042,A,3406.6958,N,11749.7250,W,31.10,352.00,220915,,,*17
$PNAVA,,5.000000,*7F
$GPRMC,100043,A,3406.7048,N,11749.7264,W,31.10,354.00,220915,,,*1E
$PNAVA,,5.000000,*7F
$GPRMC,100044,A,3406.7141,N,11749.7276,W,31.10,354.00,220915,,,*12
$PNAVA,,5.000000,*7F
$GPRMC,100045,A,3406.7232,N,11749.7288,W,31.10,354.00,220915,,,*15
$PNAVA,,5.000000,*7F
$GPRMC,100046,A,3406.7328,N,11749.7300,W,31.10,0.00,220915,,,*1F
$PNAVA,,5.000000,*7F
$GPRMC,100047,A,3406.7412,N,11749.7300,W,31.10,0.00,220915,,,*10
$PNAVA,,5.000000,*7F
$GPRMC,100048,A,3406.7505,N,11749.7300,W,31.10,0.00,220915,,,*18
$PNAVA,,5.000000,*7F
$GPRMC,100049,A,3406.7598,N,11749.7300,W,31.10,0.00,220915,,,*1D
$PNAVA,,5.000000,*7F
$GPRMC,100050,A,3406.7691,N,11749.7300,W,31.10,0.00,220915,,,*1F
$PNAVA,,5.000000,*7F
$GPRMC,100051,A,3406.7783,N,11749.7300,W,31.10,0.00,220915,,,*1C
$PNAVA,,5.000000,*7F
$GPRMC,100052,A,3406.7876,N,11749.7300,W,31.10,0.00,220915,,,*1A
$PNAVA,,5.000000,*7F
$GPRMC,100053,A,3406.7960,N,11749.7300,W,31.10,0.00,220915,,,*1D
$PNAVA,,5.000000,*7F
$GPRMC,100054,A,3406.8053,N,11749.7300,W,31.10,0.00,220915,,,*1C
$PNAVA,,5.000000,*7F
$GPRMC,100055,A,3406.8146,N,11749.7300,W,31.10,0.00,220915,,,*18
$PNAVA,,5.000000,*7F
$GPRMC,100056,A,3406.8238,N,11749.7305,W,31.10,355.00,220915,,,*17
$PNAVA,,5.000000,*7F
$GPRMC,100057,A,3406.8330,N,11749.7314,W,31.10,0.00,220915,,,*1C
$PNAVA,,5.000000,*7F
$GPRMC,100058,A,3406.8398,N,11749.7314,W,21.38,0.00,220915,,,*1A
$PNAVA,,5.000000,*7F
$GPRMC,100059,A,3406.8453,N,11749.7314,W,21.38,0.00,220915,,,*1B
$PNAVA,,5.000000,*7F
$GPRMC,100100,A,3406.8515,N,11749.7314,W,21.38,0.00,220915,,,*15
$PNAVA,,5.000000,*7F
$GPRMC,100101,A,3406.6007,N,11749.5919,W,0.00,280.00,220915,,,*2B
$PNAVA,,5.000000,*7F
$GPRMC,100102,A,3406.6007,N,11749.5919,W,0.00,280.00,220915,,,*28
$PNAVA,,5.000000,*7F
$GPRMC,100103,A,3406.6007,N,11749.5919,W,0.00,280.00,220915,,,*29
$PNAVA,,5.000000,*7F
$GPRMC,100104,A,3406.6007,N,11749.5919,W,0.00,280.00,220915,,,*2E
$PNAVA,,5.000000,*7F
$GPRMC,100105,A,3406.6007,N,11749.5919,W,0.00,280.00,220915,,,*2F
$PNAVA,,5.000000,*7F
$GPRMC,100106,A,3406.6007,N,11749.5919,W,0.00,280.00,220915,,,*2C
$PNAVA,,5.000000,*7F
$GPRMC,100107,A,3406.6007,N,11749.5919,W,0.00,280.00,220915,,,*2D
$PNAVA,,5.000000,*7F
$GPRMC,100108,A,3406.6007,N,11749.5919,W,0.00,280.00,220915,,,*22
$PNAVA,,5.000000,*7F
$GPRMC,100109,A,3406.6007,N,11749.5919,W,0.00,280.00,220915,,,*23
$PNAVA,,5.000000,*7F
$GPRMC,100110,A,3406.6010,N,11749.5941,W,9.72,280.00,220915,,,*2C
$PNAVA,,5.000000,*7F
$GPRMC,100111,A,3406.6014,N,11749.5975,W,9.72,280.00,220915,,,*2E
$PNAVA,,5.000000,*7F
$GPRMC,100113,A,3406.6020,N,11749.6012,W,9.72,280.00,220915,,,*20
$PNAVA,,5.000000,*7F
$GPRMC,100114,A,3406.6025,N,11749.6048,W,9.72,280.00,220915,,,*2D
$PNAVA,,5.000000,*7F
$GPRMC,100115,A,3406.6031,N,11749.6085,W,9.72,280.00,220915,,,*28
$PNAVA,,5.000000,*7F
$GPRMC,100116,A,3406.6036,N,11749.6121,W,9.72,280.00,220915,,,*23
$PNAVA,,5.000000,*7F
$GPRMC,100117,A,3406.6041,N,11749.6159,W,9.72,280.00,220915,,,*2D
$PNAVA,,5.000000,*7F
$GPRMC,100118,A,3406.6046,N,11749.6192,W,9.72,281.00,220915,,,*23
$PNAVA,,5.000000,*7F
$GPRMC,100001,A,3406.6055,N,11749.6252,W,9.72,281.00,220915,,,*27
$PNAVA,,5.000000,*7F
$GPRMC,100002,A,3406.6061,N,11749.6288,W,9.72,281.00,220915,,,*24
$PNAVA,,5.000000,*7F
$GPRMC,100003,A,3406.6067,N,11749.6325,W,9.72,281.00,220915,,,*25
$PNAVA,,5.000000,*7F
$GPRMC,100004,A,3406.6065,N,11749.6360,W,9.72,264.00,220915,,,*2A
$PNAVA,,5.000000,*7F
$GPRMC,100005,A,3406.6062,N,11749.6396,W,9.72,264.00,220915,,,*25
$PNAVA,,5.000000,*7F
$GPRMC,100006,A,3406.6059,N,11749.6433,W,9.72,264.00,220915,,,*26
$PNAVA,,5.000000,*7F
$GPRMC,100007,A,3406.6056,N,11749.6470,W,9.72,264.00,220915,,,*2F
$PNAVA,,5.000000,*7F
$GPRMC,100008,A,3406.6053,N,11749.6507,W,9.72,264.00,220915,,,*24
$PNAVA,,5.000000,*7F
$GPRMC,100009,A,3406.6050,N,11749.6545,W,9.72,264.00,220915,,,*20
$PNAVA,,5.000000,*7F
$GPRMC,100010,A,3406.6047,N,11749.6579,W,9.72,264.00,220915,,,*21
$PNAVA,,5.000000,*7F
$GPRMC,100011,A,3406.6043,N,11749.6615,W,9.72,259.00,220915,,,*23
$PNAVA,,5.000000,*7F
$GPRMC,100012,A,3406.6037,N,11749.6652,W,9.72,259.00,220915,,,*20
$PNAVA,,5.000000,*7F
$GPRMC,100013,A,3406.6031,N,11749.6689,W,9.72,259.00,220915,,,*21
$PNAVA,,5.000000,*7F
$GPRMC,100014,A,3406.6026,N,11749.6725,W,9.72,259.00,220915,,,*27
$PNAVA,,5.000000,*7F
$GPRMC,100015,A,3406.6020,N,11749.6762,W,9.72,259.00,220915,,,*23
$PNAVA,,5.000000,*7F
$GPRMC,100016,A,3406.6015,N,11749.6795,W,9.72,259.00,220915,,,*2E
$PNAVA,,5.000000,*7F
$GPRMC,100017,A,3406.6010,N,11749.6832,W,9.72,259.00,220915,,,*28
$PNAVA,,5.000000,*7F
$GPRMC,100018,A,3406.6004,N,11749.6869,W,9.72,259.00,220915,,,*2C
$PNAVA,,5.000000,*7F
$GPRMC,100019,A,3406.5998,N,11749.6905,W,9.72,259.00,220915,,,*29
$PNAVA,,5.000000,*7F
$GPRMC,100020,A,3406.6020,N,11749.6956,W,31.10,346.00,220915,,,*1C
$PNAVA,,5.000000,*7F
$GPRMC,100021,A,3406.6112,N,11749.6984,W,31.10,346.00,220915,,,*12
$PNAVA,,5.000000,*7F
$GPRMC,100022,A,3406.6191,N,11749.7009,W,31.10,346.00,220915,,,*17
$PNAVA,,5.000000,*7F
$GPRMC,100023,A,3406.6280,N,11749.7042,W,31.10,342.00,220915,,,*1E
$PNAVA,,5.000000,*7F
$GPRMC,100024,A,3406.6368,N,11749.7076,W,31.10,342.00,220915,,,*19
$PNAVA,,5.000000,*7F
$GPRMC,100025,A,3406.6457,N,11749.7110,W,31.10,342.00,220915,,,*12
$PNAVA,,5.000000,*7F
$GPRMC,100026,A,3406.6545,N,11749.7144,W,31.10,342.00,220915,,,*12
$PNAVA,,5.000000,*7F
$GPRMC,100027,A,3406.6634,N,11749.7176,W,31.10,349.00,220915,,,*1C
$PNAVA,,5.000000,*7F
$GPRMC,100028,A,3406.6716,N,11749.7195,W,31.10,349.00,220915,,,*1F
$PNAVA,,5.000000,*7F
$GPRMC,100029,A,3406.6807,N,11749.7216,W,31.10,349.00,220915,,,*19
$PNAVA,,5.000000,*7F
$GPRMC,100030,A,3406.6898,N,11749.7238,W,31.10,349.00,220915,,,*1B
$PNAVA,,5.000000,*7F
$GPRMC,100031,A,3406.6989,N,11749.7256,W,31.10,352.00,220915,,,*19
$PNAVA,,5.000000,*7F
$GPRMC,100032,A,3406.7082,N,11749.7268,W,31.10,354.00,220915,,,*12
$PNAVA,,5.000000,*7F
$GPRMC,100033,A,3406.7174,N,11749.7281,W,31.10,354.00,220915,,,*1C
$PNAVA,,5.000000,*7F
$GPRMC,100034,A,3406.7258,N,11749.7291,W,31.10,354.00,220915,,,*17
$PNAVA,,5.000000,*7F
$GPRMC,100035,A,3406.7354,N,11749.7300,W,31.10,0.00,220915,,,*10
$PNAVA,,5.000000,*7F
$GPRMC,100036,A,3406.7446,N,11749.7300,W,31.10,0.00,220915,,,*17
$PNAVA,,5.000000,*7F
$GPRMC,100037,A,3406.7539,N,11749.7300,W,31.10,0.00,220915,,,*1F
$PNAVA,,5.000000,*7F
$GPRMC,100038,A,3406.7631,N,11749.7300,W,31.10,0.00,220915,,,*1B
$PNAVA,,5.000000,*7F
$GPRMC,100039,A,3406.7724,N,11749.7300,W,31.10,0.00,220915,,,*1F
$PNAVA,,5.000000,*7F
$GPRMC,100040,A,3406.7810,N,11749.7300,W,31.10,0.00,220915,,,*19
$PNAVA,,5.000000,*7F
$GPRMC,100041,A,3406.7892,N,11749.7300,W,31.10,0.00,220915,,,*12
$PNAVA,,5.000000,*7F
$GPRMC,100042,A,3406.7994,N,11749.7300,W,31.10,0.00,220915,,,*16
$PNAVA,,5.000000,*7F
$GPRMC,100043,A,3406.8086,N,11749.7300,W,31.10,0.00,220915,,,*12
$PNAVA,,5.000000,*7F
$GPRMC,100044,A,3406.8180,N,11749.7300,W,31.10,0.00,220915,,,*12
$PNAVA,,5.000000,*7F
$GPRMC,100045,A,3406.8271,N,11749.7308,W,31.10,355.00,220915,,,*15
$PNAVA,,5.000000,*7F
$GPRMC,100046,A,3406.8353,N,11749.7314,W,21.38,0.00,220915,,,*12
$PNAVA,,5.000000,*7F
$GPRMC,100047,A,3406.8415,N,11749.7314,W,21.38,0.00,220915,,,*16
$PNAVA,,5.000000,*7F
$GPRMC,100048,A,3406.8476,N,11749.7314,W,21.38,0.00,220915,,,*1C
$PNAVA,,5.000000,*7F
$GPRMC,100049,A,3406.8538,N,11749.7314,W,21.38,0.00,220915,,,*16
$PNAVA,,5.000000,*7F
$GPRMC,100050,A,3406.8600,N,11749.7313,W,21.38,8.00,220915,,,*19
$PNAVA,,5.000000,*7F
$GPRMC,100051,A,3406.8662,N,11749.7303,W,21.38,8.00,220915,,,*1D
$PNAVA,,5.000000,*7F
$GPRMC,100052,A,3406.8717,N,11749.7300,W,21.38,0.00,220915,,,*16
$PNAVA,,5.000000,*7F
$GPRMC,100053,A,3406.8779,N,11749.7300,W,21.38,0.00,220915,,,*1F
$PNAVA,,5.000000,*7F
$GPRMC,100054,A,3406.8841,N,11749.7300,W,21.38,0.00,220915,,,*1C
$PNAVA,,5.000000,*7F
$GPRMC,100055,A,3406.8903,N,11749.7300,W,21.38,0.00,220915,,,*1A
$PNAVA,,5.000000,*7F
$GPRMC,100056,A,3406.8965,N,11749.7300,W,21.38,0.00,220915,,,*19
$PNAVA,,5.000000,*7F
$GPRMC,100057,A,3406.9026,N,11749.7300,W,21.38,0.00,220915,,,*17
$PNAVA,,5.000000,*7F
$GPRMC,100058,A,3406.9083,N,11749.7300,W,21.38,0.00,220915,,,*17
$PNAVA,,5.000000,*7F
$GPRMC,100059,A,3406.9145,N,11749.7300,W,21.38,0.00,220915,,,*1D
$PNAVA,,5.000000,*7F
$GPRMC,100100,A,3406.9206,N,11749.7300,W,21.38,0.00,220915,,,*14
$PNAVA,,5.000000,*7F
$GPRMC,100101,A,3406.9268,N,11749.7300,W,21.38,0.00,220915,,,*1D
$PNAVA,,5.000000,*7F
$GPRMC,100102,A,3406.9329,N,11749.7300,W,21.38,0.00,220915,,,*1A
$PNAVA,,5.000000,*7F
$GPRMC,100103,A,3406.9391,N,11749.7300,W,21.38,0.00,220915,,,*18
$PNAVA,,5.000000,*7F
$GPRMC,100104,A,3406.9448,N,11749.7300,W,21.38,0.00,220915,,,*1C
$PNAVA,,5.000000,*7F
$GPRMC,100105,A,3406.9509,N,11749.7300,W,21.38,0.00,220915,,,*19
$PNAVA,,5.000000,*7F
$GPRMC,100106,A,3406.9571,N,11749.7300,W,21.38,0.00,220915,,,*15
$PNAVA,,5.000000,*7F
$GPRMC,100107,A,3406.9633,N,11749.7300,W,21.38,0.00,220915,,,*11
$PNAVA,,5.000000,*7F
$GPRMC,100108,A,3406.9695,N,11749.7300,W,21.38,0.00,220915,,,*12
$PNAVA,,5.000000,*7F
$GPRMC,100109,A,3406.9757,N,11749.7300,W,21.38,0.00,220915,,,*1C
$PNAVA,,5.000000,*7F
$GPRMC,100110,A,3406.9812,N,11749.7300,W,21.38,0.00,220915,,,*1A
$PNAVA,,5.000000,*7F
$GPRMC,100111,A,3406.9874,N,11749.7300,W,21.38,0.00,220915,,,*1B
$PNAVA,,5.000000,*7F
$GPRMC,100112,A,3406.9936,N,11749.7300,W,21.38,0.00,220915,,,*1F
$PNAVA,,5.000000,*7F
$GPRMC,100114,A,3406.9998,N,11749.7300,W,21.38,0.00,220915,,,*1D
$PNAVA,,5.000000,*7F
$GPRMC,100115,A,3407.0060,N,11749.7300,W,21.38,0.00,220915,,,*1A
$PNAVA,,5.000000,*7F
$GPRMC,100116,A,3407.0121,N,11749.7300,W,21.38,0.00,220915,,,*1D
$PNAVA,,5.000000,*7F
$GPRMC,100117,A,3407.0178,N,11749.7300,W,21.38,0.00,220915,,,*10
$PNAVA,,5.000000,*7F
$GPRMC,100118,A,3407.0240,N,11749.7300,W,21.38,0.00,220915,,,*17
$PNAVA,,5.000000,*7F
$GPRMC,100119,A,3407.0301,N,11749.7300,W,21.38,0.00,220915,,,*12
$PNAVA,,5.000000,*7F
$GPRMC,100120,A,3407.0363,N,11749.7300,W,21.38,0.00,220915,,,*1C
$PNAVA,,5.000000,*7F
$GPRMC,100121,A,3407.0425,N,11749.7300,W,21.38,0.00,220915,,,*18
$PNAVA,,5.000000,*7F
$GPRMC,100122,A,3407.0487,N,11749.7300,W,21.38,0.00,220915,,,*13
$PNAVA,,5.000000,*7F
$GPRMC,100123,A,3407.0543,N,11749.7300,W,21.38,0.00,220915,,,*1B
$PNAVA,,5.000000,*7F
$GPRMC,100124,A,3407.0604,N,11749.7300,W,21.38,0.00,220915,,,*1C
$PNAVA,,5.000000,*7F
$GPRMC,100125,A,3407.0666,N,11749.7300,W,21.38,0.00,220915,,,*19
$PNAVA,,5.000000,*7F
$GPRMC,100126,A,3407.0728,N,11749.7300,W,21.38,0.00,220915,,,*11
$PNAVA,,5.000000,*7F
$GPRMC,100127,A,3407.0790,N,11749.7300,W,21.38,0.00,220915,,,*13
$PNAVA,,5.000000,*7F
$GPRMC,100128,A,3407.0852,N,11749.7300,W,21.38,0.00,220915,,,*1D
$PNAVA,,5.000000,*7F
$GPRMC,100129,A,3407.0908,N,11749.7300,W,21.38,0.00,220915,,,*12
$PNAVA,,5.000000,*7F
$GPRMC,100130,A,3407.0970,N,11749.7300,W,21.38,0.00,220915,,,*15
$PNAVA,,5.000000,*7F
$GPRMC,100131,A,3407.1032,N,11749.7300,W,21.38,0.00,220915,,,*1A
$PNAVA,,5.000000,*7F
$GPRMC,100132,A,3407.1093,N,11749.7300,W,21.38,0.00,220915,,,*12
$PNAVA,,5.000000,*7F
$GPRMC,100133,A,3407.1155,N,11749.7300,W,21.38,0.00,220915,,,*18
$PNAVA,,5.000000,*7F
$GPRMC,100134,A,3407.1216,N,11749.7300,W,21.38,0.00,220915,,,*1B
$PNAVA,,5.000000,*7F
$GPRMC,100135,A,3407.1273,N,11749.7305,W,21.38,356.00,220915,,,*1C
$PNAVA,,5.000000,*7F
$GPRMC,100136,A,3407.1334,N,11749.7311,W,21.38,356.00,220915,,,*18
$PNAVA,,5.000000,*7F
$GPRMC,100137,A,3407.1396,N,11749.7312,W,21.38,1.00,220915,,,*13
$PNAVA,,5.000000,*7F
$GPRMC,100138,A,3407.1458,N,11749.7311,W,21.38,1.00,220915,,,*1A
$PNAVA,,5.000000,*7F
$GPRMC,100139,A,3407.1520,N,11749.7309,W,21.38,1.00,220915,,,*1C
$PNAVA,,5.000000,*7F
$GPRMC,100140,A,3407.1582,N,11749.7306,W,21.38,1.00,220915,,,*15
$PNAVA,,5.000000,*7F
$GPRMC,100141,A,3407.1638,N,11749.7305,W,21.38,1.00,220915,,,*15
$PNAVA,,5.000000,*7F
$GPRMC,100142,A,3407.1699,N,11749.7303,W,21.38,1.00,220915,,,*1B
$PNAVA,,5.000000,*7F
$GPRMC,100143,A,3407.1761,N,11749.7301,W,21.38,1.00,220915,,,*1E
$PNAVA,,5.000000,*7F
$GPRMC,100144,A,3407.1823,N,11749.7300,W,21.38,0.00,220915,,,*10
$PNAVA,,5.000000,*7F
$GPRMC,100145,A,3407.1885,N,11749.7300,W,21.38,0.00,220915,,,*1D
$PNAVA,,5.000000,*7F
$GPRMC,100146,A,3407.1947,N,11749.7300,W,21.38,0.00,220915,,,*11
$PNAVA,,5.000000,*7F
$GPRMC,100147,A,3407.2003,N,11749.7300,W,21.38,0.00,220915,,,*1A
$PNAVA,,5.000000,*7F
$GPRMC,100148,A,3407.2064,N,11749.7300,W,21.38,0.00,220915,,,*14
$PNAVA,,5.000000,*7F
$GPRMC,100149,A,3407.2126,N,11749.7300,W,21.38,0.00,220915,,,*12
$PNAVA,,5.000000,*7F
$GPRMC,100150,A,3407.2188,N,11749.7295,W,21.38,4.00,220915,,,*17
$PNAVA,,5.000000,*7F
$GPRMC,100151,A,3407.2250,N,11749.7290,W,21.38,4.00,220915,,,*15
$PNAVA,,5.000000,*7F
$GPRMC,100152,A,3407.2289,N,11749.7242,W,31.10,88.00,220915,,,*22
$PNAVA,,5.000000,*7F
$GPRMC,100153,A,3407.2293,N,11749.7140,W,31.10,88.00,220915,,,*29
$PNAVA,,5.000000,*7F
$GPRMC,100154,A,3407.2296,N,11749.7029,W,31.10,88.00,220915,,,*25
$PNAVA,,5.000000,*7F
$GPRMC,100155,A,3407.2299,N,11749.6916,W,31.10,89.00,220915,,,*2E
$PNAVA,,5.000000,*7F
$GPRMC,100156,A,3407.2302,N,11749.6805,W,31.10,89.00,220915,,,*2D
$PNAVA,,5.000000,*7F
$GPRMC,100157,A,3407.2304,N,11749.6693,W,31.10,89.00,220915,,,*2B
$PNAVA,,5.000000,*7F
$GPRMC,100158,A,3407.2307,N,11749.6581,W,31.10,89.00,220915,,,*27
$PNAVA,,5.000000,*7F
$GPRMC,100159,A,3407.2308,N,11749.6479,W,31.10,89.00,220915,,,*2F
$PNAVA,,5.000000,*7F
$GPRMC,100200,A,3407.2310,N,11749.6367,W,31.10,90.00,220915,,,*29
$PNAVA,,5.000000,*7F
$GPRMC,100201,A,3407.2310,N,11749.6255,W,31.10,90.00,220915,,,*28
$PNAVA,,5.000000,*7F
$GPRMC,100202,A,3407.2310,N,11749.6144,W,31.10,90.00,220915,,,*28
$PNAVA,,5.000000,*7F
$GPRMC,100203,A,3407.2310,N,11749.6031,W,31.10,90.00,220915,,,*2A
$PNAVA,,5.000000,*7F
$GPRMC,100204,A,3407.2310,N,11749.5919,W,31.10,90.00,220915,,,*2D
$PNAVA,,5.000000,*7F
$GPRMC,100205,A,3407.2308,N,11749.5818,W,31.10,92.00,220915,,,*27
$PNAVA,,5.000000,*7F
$GPRMC,100206,A,3407.2305,N,11749.5706,W,31.10,92.00,220915,,,*29
$PNAVA,,5.000000,*7F
$GPRMC,100207,A,3407.2302,N,11749.5595,W,31.10,92.00,220915,,,*27
$PNAVA,,5.000000,*7F
$GPRMC,100208,A,3407.2299,N,11749.5483,W,31.10,92.00,220915,,,*2D
$PNAVA,,5.000000,*7F
$GPRMC,100209,A,3407.2288,N,11749.5371,W,31.10,88.00,220915,,,*2D
$PNAVA,,5.000000,*7F
$GPRMC,100210,A,3407.2290,N,11749.5259,W,31.10,88.00,220915,,,*27
$PNAVA,,5.000000,*7F
$GPRMC,100211,A,3407.2293,N,11749.5158,W,31.10,88.00,220915,,,*27
$PNAVA,,5.000000,*7F
$GPRMC,100212,A,3407.2296,N,11749.5046,W,31.10,88.00,220915,,,*2F
$PNAVA,,5.000000,*7F
$GPRMC,100213,A,3407.2295,N,11749.4884,W,60.26,96.00,220915,,,*24
$PNAVA,,5.000000,*7F
$GPRMC,100214,A,3407.2278,N,11749.4670,W,60.26,96.00,220915,,,*25
$PNAVA,,5.000000,*7F
$GPRMC,100215,A,3407.2260,N,11749.4457,W,60.26,96.00,220915,,,*2A
$PNAVA,,5.000000,*7F
$GPRMC,100216,A,3407.2242,N,11749.4243,W,60.26,96.00,220915,,,*2A
$PNAVA,,5.000000,*7F
$GPRMC,100217,A,3407.2226,N,11749.4050,W,60.26,96.00,220915,,,*29
$PNAVA,,5.000000,*7F
$GPRMC,100218,A,3407.2209,N,11749.3836,W,60.26,96.00,220915,,,*24
$PNAVA,,5.000000,*7F
$GPRMC,100219,A,3407.2191,N,11749.3622,W,60.26,96.00,220915,,,*2C
$PNAVA,,5.000000,*7F
$GPRMC,100220,A,3407.2172,N,11749.3409,W,60.26,96.00,220915,,,*20
$PNAVA,,5.000000,*7F
$GPRMC,100221,A,3407.2154,N,11749.3196,W,60.26,96.00,220915,,,*26
$PNAVA,,5.000000,*7F
$GPRMC,100222,A,3407.2136,N,11749.2983,W,60.26,96.00,220915,,,*2C
$PNAVA,,5.000000,*7F
$GPRMC,100223,A,3407.2119,N,11749.2788,W,60.26,96.00,220915,,,*25
$PNAVA,,5.000000,*7F
$GPRMC,100224,A,3407.2101,N,11749.2575,W,60.26,96.00,220915,,,*2B
$PNAVA,,5.000000,*7F
$GPRMC,100226,A,3407.2083,N,11749.2362,W,60.26,96.00,220915,,,*22
$PNAVA,,5.000000,*7F
$GPRMC,100227,A,3407.2065,N,11749.2148,W,60.26,96.00,220915,,,*21
$PNAVA,,5.000000,*7F
$GPRMC,100228,A,3407.2043,N,11749.1906,W,60.26,94.00,220915,,,*29
$PNAVA,,5.000000,*7F
$GPRMC,100229,A,3407.2027,N,11749.1685,W,60.26,99.00,220915,,,*23
$PNAVA,,5.000000,*7F
$GPRMC,100230,A,3407.2002,N,11749.1492,W,60.26,99.00,220915,,,*28
$PNAVA,,5.000000,*7F
$GPRMC,100231,A,3407.1981,N,11749.1279,W,60.26,97.00,220915,,,*25
$PNAVA,,5.000000,*7F
$GPRMC,100232,A,3407.1961,N,11749.1066,W,60.26,97.00,220915,,,*24
$PNAVA,,5.000000,*7F
$GPRMC,100233,A,3407.1945,N,11749.0853,W,60.26,95.00,220915,,,*2E
$PNAVA,,5.000000,*7F
$GPRMC,100234,A,3407.1930,N,11749.0639,W,60.26,95.00,220915,,,*29
$PNAVA,,5.000000,*7F
$GPRMC,100235,A,3407.1915,N,11749.0426,W,60.26,95.00,220915,,,*23
$PNAVA,,5.000000,*7F
$GPRMC,100236,A,3407.1901,N,11749.0231,W,60.26,95.00,220915,,,*25
$PNAVA,,5.000000,*7F
$GPRMC,100237,A,3407.1885,N,11749.0018,W,60.26,95.00,220915,,,*20
$PNAVA,,5.000000,*7F
$GPRMC,100238,A,3407.1869,N,11748.9804,W,60.26,95.00,220915,,,*20
$PNAVA,,5.000000,*7F
$GPRMC,100239,A,3407.1852,N,11748.9590,W,60.26,95.00,220915,,,*29
$PNAVA,,5.000000,*7F
$GPRMC,100240,A,3407.1836,N,11748.9377,W,60.26,95.00,220915,,,*2A
$PNAVA,,5.000000,*7F
$GPRMC,100241,A,3407.1822,N,11748.9163,W,60.26,92.00,220915,,,*2E
$PNAVA,,5.000000,*7F
$GPRMC,100242,A,3407.1817,N,11748.8968,W,60.26,92.00,220915,,,*29
$PNAVA,,5.000000,*7F
$GPRMC,100243,A,3407.1812,N,11748.8753,W,60.26,91.00,220915,,,*28
$PNAVA,,5.000000,*7F
$GPRMC,100244,A,3407.1810,N,11748.8539,W,60.26,91.00,220915,,,*23
$PNAVA,,5.000000,*7F
$GPRMC,100245,A,3407.1808,N,11748.8324,W,60.26,91.00,220915,,,*21
$PNAVA,,5.000000,*7F
$GPRMC,100246,A,3407.1806,N,11748.8110,W,60.26,91.00,220915,,,*29
$PNAVA,,5.000000,*7F
$GPRMC,100247,A,3407.1804,N,11748.7895,W,60.26,91.00,220915,,,*21
$PNAVA,,5.000000,*7F
$GPRMC,100248,A,3407.1802,N,11748.7700,W,60.26,90.00,220915,,,*2A
$PNAVA,,5.000000,*7F
$GPRMC,100249,A,3407.1802,N,11748.7486,W,60.26,90.00,220915,,,*26
$PNAVA,,5.000000,*7F
$GPRMC,100250,A,3407.1802,N,11748.7271,W,60.26,90.00,220915,,,*20
$PNAVA,,5.000000,*7F
$GPRMC,100251,A,3407.1802,N,11748.7057,W,60.26,90.00,220915,,,*27
$PNAVA,,5.000000,*7F
$GPRMC,100252,A,3407.1802,N,11748.6842,W,60.26,90.00,220915,,,*29
$PNAVA,,5.000000,*7F
$GPRMC,100253,A,3407.1802,N,11748.6628,W,60.26,90.00,220915,,,*2A
$PNAVA,,5.000000,*7F
$GPRMC,100254,A,3407.1802,N,11748.6380,W,60.26,90.00,220915,,,*2A
$PNAVA,,5.000000,*7F
$GPRMC,100255,A,3407.1802,N,11748.6165,W,60.26,90.00,220915,,,*22
$PNAVA,,5.000000,*7F
$GPRMC,100256,A,3407.1802,N,11748.5951,W,60.26,90.00,220915,,,*2D
$PNAVA,,5.000000,*7F
$GPRMC,100257,A,3407.1802,N,11748.5736,W,60.26,90.00,220915,,,*23
$PNAVA,,5.000000,*7F
$GPRMC,100258,A,3407.1802,N,11748.5522,W,60.26,90.00,220915,,,*2B
$PNAVA,,5.000000,*7F
$GPRMC,100259,A,3407.1802,N,11748.5307,W,60.26,90.00,220915,,,*2B
$PNAVA,,5.000000,*7F
$GPRMC,100300,A,3407.1802,N,11748.5112,W,60.26,90.00,220915,,,*20
$PNAVA,,5.000000,*7F
$GPRMC,100301,A,3407.1802,N,11748.4898,W,60.26,90.00,220915,,,*2B
$PNAVA,,5.000000,*7F
$GPRMC,100302,A,3407.1802,N,11748.4684,W,60.26,90.00,220915,,,*2B
$PNAVA,,5.000000,*7F
$GPRMC,100303,A,3407.1802,N,11748.4469,W,60.26,90.00,220915,,,*2B
$PNAVA,,5.000000,*7F
$GPRMC,100304,A,3407.1794,N,11748.4232,W,60.26,96.00,220915,,,*22
$PNAVA,,5.000000,*7F
$GPRMC,100305,A,3407.1791,N,11748.4015,W,60.26,90.00,220915,,,*27
$PNAVA,,5.000000,*7F
$GPRMC,100306,A,3407.1791,N,11748.3820,W,60.26,90.00,220915,,,*2D
$PNAVA,,5.000000,*7F
$GPRMC,100307,A,3407.1791,N,11748.3605,W,60.26,90.00,220915,,,*25
$PNAVA,,5.000000,*7F
$GPRMC,100308,A,3407.1791,N,11748.3391,W,60.26,90.00,220915,,,*22
$PNAVA,,5.000000,*7F
$GPRMC,100309,A,3407.1791,N,11748.3176,W,60.26,90.00,220915,,,*28
$PNAVA,,5.000000,*7F
$GPRMC,100310,A,3407.1791,N,11748.2962,W,60.26,90.00,220915,,,*2C
$PNAVA,,5.000000,*7F
$GPRMC,100311,A,3407.1791,N,11748.2747,W,60.26,90.00,220915,,,*24
$PNAVA,,5.000000,*7F
$GPRMC,100312,A,3407.1791,N,11748.2552,W,60.26,90.00,220915,,,*21
$PNAVA,,5.000000,*7F
$GPRMC,100313,A,3407.1791,N,11748.2338,W,60.26,91.00,220915,,,*2B
$PNAVA,,5.000000,*7F
$GPRMC,100314,A,3407.1787,N,11748.2123,W,60.26,91.00,220915,,,*23
$PNAVA,,5.000000,*7F
$GPRMC,100315,A,3407.1783,N,11748.1909,W,60.26,91.00,220915,,,*25
$PNAVA,,5.000000,*7F
$GPRMC,100316,A,3407.1780,N,11748.1669,W,60.26,90.00,220915,,,*2D
$PNAVA,,5.000000,*7F
$GPRMC,100317,A,3407.1786,N,11748.1455,W,60.26,88.00,220915,,,*2E
$PNAVA,,5.000000,*7F
$GPRMC,100318,A,3407.1791,N,11748.1260,W,60.26,90.00,220915,,,*2E
$PNAVA,,5.000000,*7F
$GPRMC,100319,A,3407.1790,N,11748.1045,W,60.26,90.00,220915,,,*2B
$PNAVA,,5.000000,*7F
$GPRMC,100320,A,3407.1788,N,11748.0831,W,60.26,90.00,220915,,,*22
$PNAVA,,5.000000,*7F
$GPRMC,100321,A,3407.1787,N,11748.0617,W,60.26,90.00,220915,,,*26
$PNAVA,,5.000000,*7F
$GPRMC,100322,A,3407.1786,N,11748.0402,W,60.26,90.00,220915,,,*22
$PNAVA,,5.000000,*7F
$GPRMC,100323,A,3407.1785,N,11748.0188,W,60.26,90.00,220915,,,*27
$PNAVA,,5.000000,*7F
$GPRMC,100324,A,3407.1783,N,11747.9993,W,60.26,90.00,220915,,,*22
$PNAVA,,5.000000,*7F
$GPRMC,100325,A,3407.1782,N,11747.9778,W,60.26,90.00,220915,,,*29
$PNAVA,,5.000000,*7F
$GPRMC,100326,A,3407.1781,N,11747.9538,W,60.26,90.00,220915,,,*2F
$PNAVA,,5.000000,*7F
$GPRMC,100327,A,3407.1783,N,11747.9323,W,60.26,90.00,220915,,,*20
$PNAVA,,5.000000,*7F
$GPRMC,100328,A,3407.1785,N,11747.9109,W,60.26,90.00,220915,,,*23
$PNAVA,,5.000000,*7F
$GPRMC,100329,A,3407.1787,N,11747.8894,W,60.26,90.00,220915,,,*2C
$PNAVA,,5.000000,*7F
$GPRMC,100330,A,3407.1789,N,11747.8699,W,60.26,90.00,220915,,,*29
$PNAVA,,5.000000,*7F
$GPRMC,100331,A,3407.1791,N,11747.8485,W,60.26,90.00,220915,,,*2E
$PNAVA,,5.000000,*7F
$GPRMC,100332,A,3407.1791,N,11747.8270,W,60.26,90.00,220915,,,*21
$PNAVA,,5.000000,*7F
$GPRMC,100333,A,3407.1791,N,11747.8055,W,60.26,90.00,220915,,,*25
$PNAVA,,5.000000,*7F
$GPRMC,100334,A,3407.1791,N,11747.7841,W,60.26,90.00,220915,,,*20
$PNAVA,,5.000000,*7F
$GPRMC,100335,A,3407.1791,N,11747.7626,W,60.26,90.00,220915,,,*2E
$PNAVA,,5.000000,*7F
$GPRMC,100336,A,3407.1791,N,11747.7431,W,60.26,90.00,220915,,,*29
$PNAVA,,5.000000,*7F
$GPRMC,100338,A,3407.1791,N,11747.7192,W,60.26,90.00,220915,,,*2B
$PNAVA,,5.000000,*7F
$GPRMC,100339,A,3407.1791,N,11747.6977,W,60.26,90.00,220915,,,*28
$PNAVA,,5.000000,*7F
$GPRMC,100340,A,3407.1791,N,11747.6763,W,60.26,90.00,220915,,,*2D
$PNAVA,,5.000000,*7F
$GPRMC,100341,A,3407.1785,N,11747.6549,W,60.26,94.00,220915,,,*27
$PNAVA,,5.000000,*7F
$GPRMC,100342,A,3407.1791,N,11747.6326,W,60.26,90.00,220915,,,*2A
$PNAVA,,5.000000,*7F
$GPRMC,100343,A,3407.1791,N,11747.6131,W,60.26,90.00,220915,,,*2F
$PNAVA,,5.000000,*7F
$GPRMC,100344,A,3407.1791,N,11747.5916,W,60.26,90.00,220915,,,*26
$PNAVA,,5.000000,*7F
$GPRMC,100345,A,3407.1791,N,11747.5702,W,60.26,90.00,220915,,,*2C
$PNAVA,,5.000000,*7F
$GPRMC,100346,A,3407.1791,N,11747.5487,W,60.26,90.00,220915,,,*21
$PNAVA,,5.000000,*7F
$GPRMC,100347,A,3407.1791,N,11747.5273,W,60.26,90.00,220915,,,*2D
$PNAVA,,5.000000,*7F
$GPRMC,100348,A,3407.1791,N,11747.5058,W,60.26,90.00,220915,,,*29
$PNAVA,,5.000000,*7F
$GPRMC,100349,A,3407.1804,N,11747.4856,W,60.26,87.00,220915,,,*2A
$PNAVA,,5.000000,*7F
$GPRMC,100350,A,3407.1813,N,11747.4642,W,60.26,87.00,220915,,,*2F
$PNAVA,,5.000000,*7F
$GPRMC,100351,A,3407.1821,N,11747.4428,W,60.26,87.00,220915,,,*21
$PNAVA,,5.000000,*7F
$GPRMC,100352,A,3407.1830,N,11747.4214,W,60.26,87.00,220915,,,*2B
$PNAVA,,5.000000,*7F
$GPRMC,100353,A,3407.1842,N,11747.3993,W,60.26,85.00,220915,,,*2E
$PNAVA,,5.000000,*7F
$GPRMC,100354,A,3407.1857,N,11747.3779,W,60.26,85.00,220915,,,*27
$PNAVA,,5.000000,*7F
$GPRMC,100355,A,3407.1870,N,11747.3585,W,60.26,85.00,220915,,,*22
$PNAVA,,5.000000,*7F
$GPRMC,100356,A,3407.1885,N,11747.3371,W,60.26,85.00,220915,,,*26
$PNAVA,,5.000000,*7F
$GPRMC,100357,A,3407.1899,N,11747.3157,W,60.26,85.00,220915,,,*2C
$PNAVA,,5.000000,*7F
$GPRMC,100358,A,3407.1914,N,11747.2943,W,60.26,86.00,220915,,,*28
$PNAVA,,5.000000,*7F
$GPRMC,100359,A,3407.1927,N,11747.2729,W,60.26,86.00,220915,,,*2B
$PNAVA,,5.000000,*7F
$GPRMC,100400,A,3407.1941,N,11747.2516,W,60.26,86.00,220915,,,*2E
$PNAVA,,5.000000,*7F
$GPRMC,100401,A,3407.1953,N,11747.2321,W,60.26,86.00,220915,,,*2E
$PNAVA,,5.000000,*7F
$GPRMC,100402,A,3407.1964,N,11747.2082,W,60.26,90.00,220915,,,*24
$PNAVA,,5.000000,*7F
$GPRMC,100403,A,3407.1965,N,11747.1864,W,60.26,89.00,220915,,,*2F
$PNAVA,,5.000000,*7F
$GPRMC,100404,A,3407.1968,N,11747.1650,W,60.26,89.00,220915,,,*2C
$PNAVA,,5.000000,*7F
$GPRMC,100405,A,3407.1970,N,11747.1435,W,60.26,89.00,220915,,,*25
$PNAVA,,5.000000,*7F
$GPRMC,100406,A,3407.1972,N,11747.1221,W,60.26,89.00,220915,,,*27
$PNAVA,,5.000000,*7F
$GPRMC,100407,A,3407.1974,N,11747.1026,W,60.26,89.00,220915,,,*25
$PNAVA,,5.000000,*7F
$GPRMC,100408,A,3407.1967,N,11747.0812,W,60.26,93.00,220915,,,*2D
$PNAVA,,5.000000,*7F
$GPRMC,100409,A,3407.1959,N,11747.0597,W,60.26,93.00,220915,,,*21
$PNAVA,,5.000000,*7F
$GPRMC,100410,A,3407.1951,N,11747.0383,W,60.26,93.00,220915,,,*22
$PNAVA,,5.000000,*7F
$GPRMC,100411,A,3407.1943,N,11747.0168,W,60.26,93.00,220915,,,*27
$PNAVA,,5.000000,*7F
$GPRMC,100412,A,3407.1928,N,11746.9954,W,60.26,95.00,220915,,,*20
$PNAVA,,5.000000,*7F
$GPRMC,100413,A,3407.1914,N,11746.9760,W,60.26,95.00,220915,,,*27
$PNAVA,,5.000000,*7F
$GPRMC,100414,A,3407.1898,N,11746.9547,W,60.26,95.00,220915,,,*22
$PNAVA,,5.000000,*7F
$GPRMC,100415,A,3407.1882,N,11746.9333,W,60.26,95.00,220915,,,*2D
$PNAVA,,5.000000,*7F
$GPRMC,100416,A,3407.1866,N,11746.9120,W,60.26,95.00,220915,,,*24
$PNAVA,,5.000000,*7F
$GPRMC,100417,A,3407.1850,N,11746.8906,W,60.26,95.00,220915,,,*2D
$PNAVA,,5.000000,*7F
$GPRMC,100418,A,3407.1834,N,11746.8692,W,60.26,95.00,220915,,,*22
$PNAVA,,5.000000,*7F
$GPRMC,100419,A,3407.1819,N,11746.8498,W,60.26,96.00,220915,,,*27
$PNAVA,,5.000000,*7F
$GPRMC,100420,A,3407.1801,N,11746.8284,W,60.26,96.00,220915,,,*2F
$PNAVA,,5.000000,*7F
$GPRMC,100421,A,3407.1783,N,11746.8071,W,60.26,96.00,220915,,,*23
$PNAVA,,5.000000,*7F
$GPRMC,100422,A,3407.1765,N,11746.7858,W,60.26,96.00,220915,,,*24
$PNAVA,,5.000000,*7F
$GPRMC,100423,A,3407.1747,N,11746.7644,W,60.26,96.00,220915,,,*26
$PNAVA,,5.000000,*7F
$GPRMC,100424,A,3407.1726,N,11746.7381,W,60.26,90.00,220915,,,*2C
$PNAVA,,5.000000,*7F
$GPRMC,100425,A,3407.1721,N,11746.7186,W,60.26,95.00,220915,,,*2A
$PNAVA,,5.000000,*7F
$GPRMC,100426,A,3407.1706,N,11746.6973,W,60.26,95.00,220915,,,*2F
$PNAVA,,5.000000,*7F
$GPRMC,100427,A,3407.1690,N,11746.6759,W,60.26,95.00,220915,,,*26
$PNAVA,,5.000000,*7F
$GPRMC,100428,A,3407.1675,N,11746.6546,W,60.26,95.00,220915,,,*2E
$PNAVA,,5.000000,*7F
$GPRMC,100429,A,3407.1660,N,11746.6332,W,60.26,95.00,220915,,,*2E
$PNAVA,,5.000000,*7F
$GPRMC,100430,A,3407.1651,N,11746.6118,W,60.26,94.00,220915,,,*2F
$PNAVA,,5.000000,*7F
$GPRMC,100431,A,3407.1639,N,11746.5923,W,60.26,94.00,220915,,,*23
$PNAVA,,5.000000,*7F
$GPRMC,100432,A,3407.1627,N,11746.5709,W,60.26,94.00,220915,,,*29
$PNAVA,,5.000000,*7F
$GPRMC,100433,A,3407.1615,N,11746.5495,W,60.26,94.00,220915,,,*2F
$PNAVA,,5.000000,*7F
$GPRMC,100434,A,3407.1605,N,11746.5281,W,60.26,92.00,220915,,,*2C
$PNAVA,,5.000000,*7F
$GPRMC,100435,A,3407.1597,N,11746.5067,W,60.26,92.00,220915,,,*2F
$PNAVA,,5.000000,*7F
$GPRMC,100436,A,3407.1590,N,11746.4852,W,60.26,92.00,220915,,,*24
$PNAVA,,5.000000,*7F
$GPRMC,100437,A,3407.1583,N,11746.4657,W,60.26,92.00,220915,,,*2C
$PNAVA,,5.000000,*7F
$GPRMC,100438,A,3407.1576,N,11746.4443,W,60.26,92.00,220915,,,*2E
$PNAVA,,5.000000,*7F
$GPRMC,100439,A,3407.1575,N,11746.4196,W,60.26,90.00,220915,,,*23
$PNAVA,,5.000000,*7F
$GPRMC,100440,A,3407.1575,N,11746.3982,W,60.26,90.00,220915,,,*27
$PNAVA,,5.000000,*7F
$GPRMC,100441,A,3407.1577,N,11746.3767,W,60.26,88.00,220915,,,*28
$PNAVA,,5.000000,*7F
$GPRMC,100442,A,3407.1582,N,11746.3553,W,60.26,88.00,220915,,,*24
$PNAVA,,5.000000,*7F
$GPRMC,100443,A,3407.1587,N,11746.3358,W,60.26,86.00,220915,,,*23
$PNAVA,,5.000000,*7F
$GPRMC,100444,A,3407.1598,N,11746.3144,W,60.26,86.00,220915,,,*25
$PNAVA,,5.000000,*7F
$GPRMC,100445,A,3407.1608,N,11746.2929,W,60.26,86.00,220915,,,*2C
$PNAVA,,5.000000,*7F
$GPRMC,100446,A,3407.1618,N,11746.2715,W,60.26,86.00,220915,,,*2F
$PNAVA,,5.000000,*7F
$GPRMC,100447,A,3407.1629,N,11746.2501,W,60.26,86.00,220915,,,*2B
$PNAVA,,5.000000,*7F
$GPRMC,100448,A,3407.1639,N,11746.2287,W,60.26,86.00,220915,,,*2C
$PNAVA,,5.000000,*7F
$GPRMC,100450,A,3407.1648,N,11746.2092,W,60.26,86.00,220915,,,*25
$PNAVA,,5.000000,*7F
$GPRMC,100451,A,3407.1659,N,11746.1861,W,60.26,87.00,220915,,,*22
$PNAVA,,5.000000,*7F
$GPRMC,100452,A,3407.1669,N,11746.1647,W,60.26,87.00,220915,,,*28
$PNAVA,,5.000000,*7F
$GPRMC,100453,A,3407.1680,N,11746.1433,W,60.26,87.00,220915,,,*2F
$PNAVA,,5.000000,*7F
$GPRMC,100454,A,3407.1690,N,11746.1219,W,60.26,87.00,220915,,,*27
$PNAVA,,5.000000,*7F
$GPRMC,100455,A,3407.1699,N,11746.1005,W,60.26,87.00,220915,,,*20
$PNAVA,,5.000000,*7F
$GPRMC,100456,A,3407.1707,N,11746.0810,W,60.26,88.00,220915,,,*27
$PNAVA,,5.000000,*7F
$GPRMC,100457,A,3407.1714,N,11746.0595,W,60.26,88.00,220915,,,*24
$PNAVA,,5.000000,*7F
$GPRMC,100458,A,3407.1720,N,11746.0381,W,60.26,88.00,220915,,,*2F
$PNAVA,,5.000000,*7F
$GPRMC,100459,A,3407.1726,N,11746.0166,W,60.26,90.00,220915,,,*2A
$PNAVA,,5.000000,*7F
$GPRMC,100500,A,3407.1726,N,11745.9952,W,60.26,90.00,220915,,,*22
$PNAVA,,5.000000,*7F
$GPRMC,100501,A,3407.1726,N,11745.9720,W,60.26,91.00,220915,,,*29
$PNAVA,,5.000000,*7F
$GPRMC,100502,A,3407.1724,N,11745.9525,W,60.26,91.00,220915,,,*2F
$PNAVA,,5.000000,*7F
$GPRMC,100503,A,3407.1721,N,11745.9311,W,60.26,91.00,220915,,,*2A
$PNAVA,,5.000000,*7F
$GPRMC,100504,A,3407.1719,N,11745.9096,W,60.26,91.00,220915,,,*2A
$PNAVA,,5.000000,*7F
$GPRMC,100505,A,3407.1716,N,11745.8882,W,60.26,91.00,220915,,,*28
$PNAVA,,5.000000,*7F
$GPRMC,100506,A,3407.1713,N,11745.8667,W,60.26,91.00,220915,,,*2B
$PNAVA,,5.000000,*7F
$GPRMC,100507,A,3407.1710,N,11745.8453,W,60.26,91.00,220915,,,*2C
$PNAVA,,5.000000,*7F
$GPRMC,100508,A,3407.1708,N,11745.8258,W,60.26,91.00,220915,,,*27
$PNAVA,,5.000000,*7F
$GPRMC,100509,A,3407.1705,N,11745.8043,W,60.26,91.00,220915,,,*23
$PNAVA,,5.000000,*7F
$GPRMC,100510,A,3407.1702,N,11745.7829,W,60.26,91.00,220915,,,*27
$PNAVA,,5.000000,*7F
$GPRMC,100511,A,3407.1700,N,11745.7614,W,60.26,91.00,220915,,,*24
$PNAVA,,5.000000,*7F
$GPRMC,100512,A,3407.1697,N,11745.7400,W,60.26,91.00,220915,,,*2F
$PNAVA,,5.000000,*7F
$GPRMC,100513,A,3407.1695,N,11745.7192,W,60.26,91.00,220915,,,*22
$PNAVA,,5.000000,*7F
$GPRMC,100514,A,3407.1692,N,11745.6977,W,60.26,91.00,220915,,,*20
$PNAVA,,5.000000,*7F
$GPRMC,100515,A,3407.1689,N,11745.6763,W,60.26,91.00,220915,,,*20
$PNAVA,,5.000000,*7F
$GPRMC,100516,A,3407.1687,N,11745.6568,W,60.26,91.00,220915,,,*24
$PNAVA,,5.000000,*7F
$GPRMC,100517,A,3407.1684,N,11745.6353,W,60.26,91.00,220915,,,*28
$PNAVA,,5.000000,*7F
$GPRMC,100518,A,3407.1680,N,11745.6139,W,60.26,91.00,220915,,,*2D
$PNAVA,,5.000000,*7F
$GPRMC,100519,A,3407.1676,N,11745.5924,W,60.26,91.00,220915,,,*22
$PNAVA,,5.000000,*7F
$GPRMC,100520,A,3407.1671,N,11745.5710,W,60.26,91.00,220915,,,*26
$PNAVA,,5.000000,*7F
$GPRMC,100521,A,3407.1667,N,11745.5495,W,60.26,91.00,220915,,,*2E
$PNAVA,,5.000000,*7F
$GPRMC,100522,A,3407.1663,N,11745.5300,W,60.26,91.00,220915,,,*22
$PNAVA,,5.000000,*7F
$GPRMC,100523,A,3407.1659,N,11745.5086,W,60.26,91.00,220915,,,*27
$PNAVA,,5.000000,*7F
$GPRMC,100524,A,3407.1655,N,11745.4871,W,60.26,91.00,220915,,,*2D
$PNAVA,,5.000000,*7F
$GPRMC,100525,A,3407.1648,N,11745.4603,W,60.26,93.00,220915,,,*29
$PNAVA,,5.000000,*7F
$GPRMC,100526,A,3407.1640,N,11745.4389,W,60.26,90.00,220915,,,*26
$PNAVA,,5.000000,*7F
$GPRMC,100527,A,3407.1640,N,11745.4174,W,60.26,90.00,220915,,,*27
$PNAVA,,5.000000,*7F
$GPRMC,100528,A,3407.1633,N,11745.3979,W,60.26,93.00,220915,,,*2D
$PNAVA,,5.000000,*7F
$GPRMC,100529,A,3407.1626,N,11745.3765,W,60.26,92.00,220915,,,*2A
$PNAVA,,5.000000,*7F
$GPRMC,100530,A,3407.1618,N,11745.3551,W,60.26,92.00,220915,,,*2A
$PNAVA,,5.000000,*7F
$GPRMC,100531,A,3407.1611,N,11745.3336,W,60.26,92.00,220915,,,*25
$PNAVA,,5.000000,*7F
$GPRMC,100532,A,3407.1604,N,11745.3122,W,60.26,92.00,220915,,,*25
$PNAVA,,5.000000,*7F
$GPRMC,100533,A,3407.1597,N,11745.2908,W,60.26,92.00,220915,,,*2C
$PNAVA,,5.000000,*7F
$GPRMC,100534,A,3407.1590,N,11745.2713,W,60.26,92.00,220915,,,*28
$PNAVA,,5.000000,*7F
$GPRMC,100535,A,3407.1582,N,11745.2498,W,60.26,93.00,220915,,,*2B
$PNAVA,,5.000000,*7F
$GPRMC,100536,A,3407.1574,N,11745.2284,W,60.26,93.00,220915,,,*2A
$PNAVA,,5.000000,*7F
$GPRMC,100537,A,3407.1565,N,11745.2070,W,60.26,93.00,220915,,,*22
$PNAVA,,5.000000,*7F
$GPRMC,100538,A,3407.1564,N,11745.1856,W,60.26,90.00,220915,,,*20
$PNAVA,,5.000000,*7F
$GPRMC,100539,A,3407.1564,N,11745.1641,W,60.26,90.00,220915,,,*29
$PNAVA,,5.000000,*7F
$GPRMC,100540,A,3407.1575,N,11745.1409,W,60.26,88.00,220915,,,*20
$PNAVA,,5.000000,*7F
$GPRMC,100541,A,3407.1582,N,11745.1195,W,60.26,88.00,220915,,,*29
$PNAVA,,5.000000,*7F
$GPRMC,100542,A,3407.1593,N,11745.0980,W,60.26,84.00,220915,,,*2B
$PNAVA,,5.000000,*7F
$GPRMC,100543,A,3407.1612,N,11745.0767,W,60.26,84.00,220915,,,*27
$PNAVA,,5.000000,*7F
$GPRMC,100544,A,3407.1630,N,11745.0554,W,60.26,84.00,220915,,,*22
$PNAVA,,5.000000,*7F
$GPRMC,100545,A,3407.1656,N,11745.0329,W,60.26,80.00,220915,,,*2B
$PNAVA,,5.000000,*7F
$GPRMC,100546,A,3407.1684,N,11745.0138,W,60.26,80.00,220915,,,*25
$PNAVA,,5.000000,*7F
$GPRMC,100547,A,3407.1716,N,11744.9926,W,60.26,80.00,220915,,,*21
$PNAVA,,5.000000,*7F
$GPRMC,100548,A,3407.1748,N,11744.9716,W,60.26,76.00,220915,,,*21
$PNAVA,,5.000000,*7F
$GPRMC,100549,A,3407.1789,N,11744.9507,W,60.26,76.00,220915,,,*2F
$PNAVA,,5.000000,*7F
$GPRMC,100550,A,3407.1830,N,11744.9298,W,60.26,76.00,220915,,,*2B
$PNAVA,,5.000000,*7F
$GPRMC,100551,A,3407.1874,N,11744.9079,W,60.26,76.00,220915,,,*27
$PNAVA,,5.000000,*7F
$GPRMC,100552,A,3407.1913,N,11744.8889,W,60.26,76.00,220915,,,*22
$PNAVA,,5.000000,*7F
$GPRMC,100553,A,3407.1957,N,11744.8682,W,60.26,76.00,220915,,,*26
$PNAVA,,5.000000,*7F
$GPRMC,100554,A,3407.2002,N,11744.8474,W,60.26,76.00,220915,,,*20
$PNAVA,,5.000000,*7F
$GPRMC,100555,A,3407.2046,N,11744.8267,W,60.26,76.00,220915,,,*25
$PNAVA,,5.000000,*7F
$GPRMC,100556,A,3407.2090,N,11744.8058,W,60.26,76.00,220915,,,*23
$PNAVA,,5.000000,*7F
$GPRMC,100557,A,3407.2130,N,11744.7850,W,60.26,79.00,220915,,,*29
$PNAVA,,5.000000,*7F
$GPRMC,100558,A,3407.2161,N,11744.7659,W,60.26,79.00,220915,,,*25
$PNAVA,,5.000000,*7F
$GPRMC,100559,A,3407.2196,N,11744.7448,W,60.26,79.00,220915,,,*2E
$PNAVA,,5.000000,*7F
$GPRMC,100600,A,3407.2227,N,11744.7237,W,60.26,81.00,220915,,,*21
$PNAVA,,5.000000,*7F
$GPRMC,100602,A,3407.2256,N,11744.7025,W,60.26,85.00,220915,,,*20
$PNAVA,,5.000000,*7F
$GPRMC,100603,A,3407.2271,N,11744.6811,W,60.26,85.00,220915,,,*2A
$PNAVA,,5.000000,*7F
$GPRMC,100604,A,3407.2286,N,11744.6597,W,60.26,85.00,220915,,,*26
$PNAVA,,5.000000,*7F
$GPRMC,100605,A,3407.2299,N,11744.6403,W,60.26,85.00,220915,,,*25
$PNAVA,,5.000000,*7F
$GPRMC,100606,A,3407.2310,N,11744.6189,W,60.26,90.00,220915,,,*25
$PNAVA,,5.000000,*7F
$GPRMC,100607,A,3407.2310,N,11744.5975,W,60.26,90.00,220915,,,*2C
$PNAVA,,5.000000,*7F
$GPRMC,100608,A,3407.2310,N,11744.5760,W,60.26,90.00,220915,,,*29
$PNAVA,,5.000000,*7F
$GPRMC,100609,A,3407.2308,N,11744.5546,W,60.26,94.00,220915,,,*23
$PNAVA,,5.000000,*7F
$GPRMC,100610,A,3407.2296,N,11744.5332,W,60.26,94.00,220915,,,*28
$PNAVA,,5.000000,*7F
$GPRMC,100611,A,3407.2285,N,11744.5137,W,60.26,94.00,220915,,,*2C
$PNAVA,,5.000000,*7F
$GPRMC,100612,A,3407.2273,N,11744.4923,W,60.26,94.00,220915,,,*2A
$PNAVA,,5.000000,*7F
$GPRMC,100613,A,3407.2262,N,11744.4709,W,60.26,94.00,220915,,,*2D
$PNAVA,,5.000000,*7F
$GPRMC,100614,A,3407.2250,N,11744.4495,W,60.26,94.00,220915,,,*2D
$PNAVA,,5.000000,*7F
$GPRMC,100615,A,3407.2238,N,11744.4281,W,60.26,94.00,220915,,,*21
$PNAVA,,5.000000,*7F
$GPRMC,100616,A,3407.2222,N,11744.4014,W,60.26,94.00,220915,,,*27
$PNAVA,,5.000000,*7F
$GPRMC,100617,A,3407.2211,N,11744.3820,W,60.26,94.00,220915,,,*2E
$PNAVA,,5.000000,*7F
$GPRMC,100618,A,3407.2202,N,11744.3606,W,60.26,90.00,220915,,,*2D
$PNAVA,,5.000000,*7F
$GPRMC,100619,A,3407.2197,N,11744.3391,W,60.26,92.00,220915,,,*2A
$PNAVA,,5.000000,*7F
$GPRMC,100620,A,3407.2192,N,11744.3177,W,60.26,92.00,220915,,,*2F
$PNAVA,,5.000000,*7F
$GPRMC,100621,A,3407.2187,N,11744.2963,W,60.26,92.00,220915,,,*26
$PNAVA,,5.000000,*7F
$GPRMC,100622,A,3407.2182,N,11744.2748,W,60.26,92.00,220915,,,*27
$PNAVA,,5.000000,*7F
$GPRMC,100623,A,3407.2178,N,11744.2553,W,60.26,92.00,220915,,,*2B
$PNAVA,,5.000000,*7F
$GPRMC,100624,A,3407.2173,N,11744.2339,W,60.26,92.00,220915,,,*2D
$PNAVA,,5.000000,*7F
$GPRMC,100625,A,3407.2169,N,11744.2124,W,60.26,92.00,220915,,,*29
$PNAVA,,5.000000,*7F
$GPRMC,100626,A,3407.2163,N,11744.1910,W,60.26,92.00,220915,,,*2C
$PNAVA,,5.000000,*7F
$GPRMC,100627,A,3407.2158,N,11744.1695,W,60.26,92.00,220915,,,*27
$PNAVA,,5.000000,*7F
$GPRMC,100628,A,3407.2154,N,11744.1481,W,60.26,92.00,220915,,,*23
$PNAVA,,5.000000,*7F
$GPRMC,100629,A,3407.2149,N,11744.1286,W,60.26,92.00,220915,,,*2F
$PNAVA,,5.000000,*7F
$GPRMC,100630,A,3407.2145,N,11744.1071,W,60.26,92.00,220915,,,*21
$PNAVA,,5.000000,*7F
$GPRMC,100631,A,3407.2140,N,11744.0857,W,60.26,92.00,220915,,,*28
$PNAVA,,5.000000,*7F
$GPRMC,100632,A,3407.2134,N,11744.0643,W,60.26,92.00,220915,,,*23
$PNAVA,,5.000000,*7F
$GPRMC,100633,A,3407.2127,N,11744.0428,W,60.26,92.00,220915,,,*2F
$PNAVA,,5.000000,*7F
$GPRMC,100634,A,3407.2121,N,11744.0214,W,60.26,92.00,220915,,,*27
$PNAVA,,5.000000,*7F
$GPRMC,100635,A,3407.2115,N,11744.0020,W,60.26,92.00,220915,,,*24
$PNAVA,,5.000000,*7F
$GPRMC,100636,A,3407.2109,N,11743.9805,W,60.26,92.00,220915,,,*2B
$PNAVA,,5.000000,*7F
$GPRMC,100637,A,3407.2102,N,11743.9591,W,60.26,92.00,220915,,,*21
$PNAVA,,5.000000,*7F
$GPRMC,100638,A,3407.2094,N,11743.9327,W,60.26,93.00,220915,,,*2A
$PNAVA,,5.000000,*7F
$GPRMC,100639,A,3407.2083,N,11743.9112,W,60.26,93.00,220915,,,*29
$PNAVA,,5.000000,*7F
$GPRMC,100640,A,3407.2083,N,11743.8898,W,60.26,90.00,220915,,,*2E
$PNAVA,,5.000000,*7F
$GPRMC,100641,A,3407.2082,N,11743.8703,W,60.26,91.00,220915,,,*22
$PNAVA,,5.000000,*7F
$GPRMC,100642,A,3407.2078,N,11743.8488,W,60.26,91.00,220915,,,*24
$PNAVA,,5.000000,*7F
$GPRMC,100643,A,3407.2074,N,11743.8274,W,60.26,91.00,220915,,,*2C
$PNAVA,,5.000000,*7F
$GPRMC,100644,A,3407.2070,N,11743.8059,W,60.26,91.00,220915,,,*22
$PNAVA,,5.000000,*7F
$GPRMC,100645,A,3407.2065,N,11743.7845,W,60.26,91.00,220915,,,*2D
$PNAVA,,5.000000,*7F
$GPRMC,100646,A,3407.2061,N,11743.7630,W,60.26,92.00,220915,,,*25
$PNAVA,,5.000000,*7F
$GPRMC,100647,A,3407.2056,N,11743.7435,W,60.26,92.00,220915,,,*27
$PNAVA,,5.000000,*7F
$GPRMC,100648,A,3407.2049,N,11743.7221,W,60.26,92.00,220915,,,*25
$PNAVA,,5.000000,*7F
$GPRMC,100649,A,3407.2043,N,11743.7007,W,60.26,92.00,220915,,,*28
$PNAVA,,5.000000,*7F
$GPRMC,100650,A,3407.2037,N,11743.6793,W,60.26,92.00,220915,,,*28
$PNAVA,,5.000000,*7F
$GPRMC,100651,A,3407.2031,N,11743.6578,W,60.26,92.00,220915,,,*28
$PNAVA,,5.000000,*7F
$GPRMC,100652,A,3407.2027,N,11743.6364,W,60.26,91.00,220915,,,*24
$PNAVA,,5.000000,*7F
$GPRMC,100653,A,3407.2024,N,11743.6169,W,60.26,91.00,220915,,,*29
$PNAVA,,5.000000,*7F
$GPRMC,100654,A,3407.2021,N,11743.5955,W,60.26,91.00,220915,,,*2F
$PNAVA,,5.000000,*7F
$GPRMC,100655,A,3407.2018,N,11743.5740,W,60.26,91.00,220915,,,*2E
$PNAVA,,5.000000,*7F
$GPRMC,100656,A,3407.2014,N,11743.5526,W,60.26,91.00,220915,,,*23
$PNAVA,,5.000000,*7F
$GPRMC,100657,A,3407.2011,N,11743.5311,W,60.26,91.00,220915,,,*25
$PNAVA,,5.000000,*7F
$GPRMC,100658,A,3407.2008,N,11743.5096,W,60.26,91.00,220915,,,*2E
$PNAVA,,5.000000,*7F
$GPRMC,100659,A,3407.2005,N,11743.4901,W,60.26,91.00,220915,,,*24
$PNAVA,,5.000000,*7F
$GPRMC,100700,A,3407.2002,N,11743.4687,W,60.26,91.00,220915,,,*2F
$PNAVA,,5.000000,*7F
$GPRMC,100701,A,3407.1999,N,11743.4472,W,60.26,91.00,220915,,,*2E
$PNAVA,,5.000000,*7F
$GPRMC,100702,A,3407.1996,N,11743.4258,W,60.26,91.00,220915,,,*2C
$PNAVA,,5.000000,*7F
$GPRMC,100703,A,3407.1993,N,11743.4043,W,60.26,91.00,220915,,,*20
$PNAVA,,5.000000,*7F
$GPRMC,100704,A,3407.1990,N,11743.3829,W,60.26,91.00,220915,,,*27
$PNAVA,,5.000000,*7F
$GPRMC,100705,A,3407.1987,N,11743.3634,W,60.26,91.00,220915,,,*22
$PNAVA,,5.000000,*7F
$GPRMC,100706,A,3407.1984,N,11743.3419,W,60.26,91.00,220915,,,*2F
$PNAVA,,5.000000,*7F
$GPRMC,100707,A,3407.1981,N,11743.3205,W,60.26,91.00,220915,,,*20
$PNAVA,,5.000000,*7F
$GPRMC,100708,A,3407.1978,N,11743.2991,W,60.26,91.00,220915,,,*2E
$PNAVA,,5.000000,*7F
$GPRMC,100709,A,3407.1975,N,11743.2776,W,60.26,91.00,220915,,,*25
$PNAVA,,5.000000,*7F
$GPRMC,100710,A,3407.1972,N,11743.2562,W,60.26,91.00,220915,,,*2D
$PNAVA,,5.000000,*7F
$GPRMC,100711,A,3407.1969,N,11743.2367,W,60.26,91.00,220915,,,*25
$PNAVA,,5.000000,*7F
$GPRMC,100712,A,3407.1966,N,11743.2152,W,60.26,91.00,220915,,,*2D
$PNAVA,,5.000000,*7F
$GPRMC,100714,A,3407.1962,N,11743.1860,W,60.26,91.00,220915,,,*24
$PNAVA,,5.000000,*7F
$GPRMC,100715,A,3407.1960,N,11743.1646,W,60.26,91.00,220915,,,*2D
$PNAVA,,5.000000,*7F
$GPRMC,100716,A,3407.1958,N,11743.1431,W,60.26,91.00,220915,,,*27
$PNAVA,,5.000000,*7F
$GPRMC,100717,A,3407.1956,N,11743.1217,W,60.26,91.00,220915,,,*2A
$PNAVA,,5.000000,*7F
$GPRMC,100718,A,3407.1954,N,11743.1022,W,60.26,91.00,220915,,,*23
$PNAVA,,5.000000,*7F
$GPRMC,100719,A,3407.1951,N,11743.0807,W,60.26,91.00,220915,,,*29
$PNAVA,,5.000000,*7F
$GPRMC,100720,A,3407.1949,N,11743.0592,W,60.26,91.00,220915,,,*2B
$PNAVA,,5.000000,*7F
$GPRMC,100721,A,3407.1947,N,11743.0378,W,60.26,91.00,220915,,,*26
$PNAVA,,5.000000,*7F
$GPRMC,100722,A,3407.1945,N,11743.0163,W,60.26,91.00,220915,,,*2F
$PNAVA,,5.000000,*7F
$GPRMC,100723,A,3407.1942,N,11742.9924,W,60.26,90.00,220915,,,*2B
$PNAVA,,5.000000,*7F
$GPRMC,100724,A,3407.1941,N,11742.9729,W,60.26,90.00,220915,,,*2C
$PNAVA,,5.000000,*7F
$GPRMC,100725,A,3407.1939,N,11742.9515,W,60.26,90.00,220915,,,*2F
$PNAVA,,5.000000,*7F
$GPRMC,100726,A,3407.1937,N,11742.9301,W,60.26,90.00,220915,,,*21
$PNAVA,,5.000000,*7F
$GPRMC,100727,A,3407.1935,N,11742.9086,W,60.26,90.00,220915,,,*2E
$PNAVA,,5.000000,*7F
$GPRMC,100728,A,3407.1933,N,11742.8872,W,60.26,90.00,220915,,,*25
$PNAVA,,5.000000,*7F
$GPRMC,100729,A,3407.1931,N,11742.8657,W,60.26,90.00,220915,,,*2F
$PNAVA,,5.000000,*7F
$GPRMC,100730,A,3407.1929,N,11742.8462,W,60.26,90.00,220915,,,*2A
$PNAVA,,5.000000,*7F
$GPRMC,100731,A,3407.1927,N,11742.8248,W,60.26,90.00,220915,,,*2B
$PNAVA,,5.000000,*7F
$GPRMC,100732,A,3407.1925,N,11742.8033,W,60.26,90.00,220915,,,*24
$PNAVA,,5.000000,*7F
$GPRMC,100733,A,3407.1923,N,11742.7819,W,60.26,90.00,220915,,,*2C
$PNAVA,,5.000000,*7F
$GPRMC,100734,A,3407.1921,N,11742.7604,W,60.26,90.00,220915,,,*2B
$PNAVA,,5.000000,*7F
$GPRMC,100735,A,3407.1920,N,11742.7390,W,60.26,90.00,220915,,,*23
$PNAVA,,5.000000,*7F
$GPRMC,100736,A,3407.1918,N,11742.7195,W,60.26,90.00,220915,,,*2C
$PNAVA,,5.000000,*7F
$GPRMC,100737,A,3407.1916,N,11742.6980,W,60.26,90.00,220915,,,*2E
$PNAVA,,5.000000,*7F
$GPRMC,100738,A,3407.1914,N,11742.6766,W,60.26,90.00,220915,,,*25
$PNAVA,,5.000000,*7F
$GPRMC,100739,A,3407.1912,N,11742.6551,W,60.26,90.00,220915,,,*24
$PNAVA,,5.000000,*7F
$GPRMC,100740,A,3407.1910,N,11742.6337,W,60.26,90.00,220915,,,*2E
$PNAVA,,5.000000,*7F
$GPRMC,100741,A,3407.1908,N,11742.6122,W,60.26,90.00,220915,,,*20
$PNAVA,,5.000000,*7F
$GPRMC,100742,A,3407.1906,N,11742.5927,W,60.26,90.00,220915,,,*23
$PNAVA,,5.000000,*7F
$GPRMC,100743,A,3407.1904,N,11742.5712,W,60.26,90.00,220915,,,*28
$PNAVA,,5.000000,*7F
$GPRMC,100744,A,3407.1902,N,11742.5498,W,60.26,90.00,220915,,,*28
$PNAVA,,5.000000,*7F
$GPRMC,100745,A,3407.1900,N,11742.5283,W,60.26,90.00,220915,,,*27
$PNAVA,,5.000000,*7F
$GPRMC,100746,A,3407.1896,N,11742.5069,W,60.26,91.00,220915,,,*2D
$PNAVA,,5.000000,*7F
$GPRMC,100747,A,3407.1893,N,11742.4855,W,60.26,91.00,220915,,,*2F
$PNAVA,,5.000000,*7F
$GPRMC,100748,A,3407.1888,N,11742.4660,W,60.26,91.00,220915,,,*22
$PNAVA,,5.000000,*7F
$GPRMC,100749,A,3407.1884,N,11742.4445,W,60.26,91.00,220915,,,*2A
$PNAVA,,5.000000,*7F
$GPRMC,100750,A,3407.1881,N,11742.4231,W,60.26,91.00,220915,,,*22
$PNAVA,,5.000000,*7F
$GPRMC,100751,A,3407.1877,N,11742.4016,W,60.26,91.00,220915,,,*2D
$PNAVA,,5.000000,*7F
$GPRMC,100752,A,3407.1875,N,11742.3802,W,60.26,91.00,220915,,,*26
$PNAVA,,5.000000,*7F
$GPRMC,100753,A,3407.1872,N,11742.3587,W,60.26,91.00,220915,,,*20
$PNAVA,,5.000000,*7F
$GPRMC,100754,A,3407.1870,N,11742.3392,W,60.26,91.00,220915,,,*27
$PNAVA,,5.000000,*7F
$GPRMC,100755,A,3407.1867,N,11742.3178,W,60.26,91.00,220915,,,*26
$PNAVA,,5.000000,*7F
$GPRMC,100756,A,3407.1872,N,11742.2963,W,60.26,88.00,220915,,,*2A
$PNAVA,,5.000000,*7F
$GPRMC,100757,A,3407.1878,N,11742.2749,W,60.26,88.00,220915,,,*27
$PNAVA,,5.000000,*7F
$GPRMC,100758,A,3407.1884,N,11742.2534,W,60.26,88.00,220915,,,*23
$PNAVA,,5.000000,*7F
$GPRMC,100759,A,3407.1890,N,11742.2320,W,60.26,88.00,220915,,,*24
$PNAVA,,5.000000,*7F
$GPRMC,100800,A,3407.1896,N,11742.2125,W,60.26,88.00,220915,,,*26
$PNAVA,,5.000000,*7F
$GPRMC,100801,A,3407.1905,N,11742.1911,W,60.26,86.00,220915,,,*2E
$PNAVA,,5.000000,*7F
$GPRMC,100802,A,3407.1916,N,11742.1697,W,60.26,86.00,220915,,,*2E
$PNAVA,,5.000000,*7F
$GPRMC,100803,A,3407.1928,N,11742.1483,W,60.26,86.00,220915,,,*25
$PNAVA,,5.000000,*7F
$GPRMC,100804,A,3407.1939,N,11742.1269,W,60.26,86.00,220915,,,*20
$PNAVA,,5.000000,*7F
$GPRMC,100805,A,3407.1951,N,11742.1055,W,60.26,86.00,220915,,,*22
$PNAVA,,5.000000,*7F
$GPRMC,100806,A,3407.1962,N,11742.0860,W,60.26,86.00,220915,,,*2E
$PNAVA,,5.000000,*7F
$GPRMC,100807,A,3407.1973,N,11742.0646,W,60.26,86.00,220915,,,*25
$PNAVA,,5.000000,*7F
$GPRMC,100808,A,3407.1999,N,11742.0434,W,60.26,81.00,220915,,,*2E
$PNAVA,,5.000000,*7F
$GPRMC,100809,A,3407.2026,N,11742.0222,W,60.26,81.00,220915,,,*20
$PNAVA,,5.000000,*7F
$GPRMC,100810,A,3407.2084,N,11741.9903,W,60.26,76.00,220915,,,*2A
$PNAVA,,5.000000,*7F
$GPRMC,100811,A,3407.2128,N,11741.9695,W,60.26,76.00,220915,,,*2C
$PNAVA,,5.000000,*7F
$GPRMC,100812,A,3407.2173,N,11741.9508,W,60.26,72.00,220915,,,*22
$PNAVA,,5.000000,*7F
$GPRMC,100813,A,3407.2227,N,11741.9304,W,60.26,72.00,220915,,,*2B
$PNAVA,,5.000000,*7F
$GPRMC,100814,A,3407.2283,N,11741.9100,W,60.26,72.00,220915,,,*24
$PNAVA,,5.000000,*7F
$GPRMC,100815,A,3407.2351,N,11741.8903,W,60.26,65.00,220915,,,*27
$PNAVA,,5.000000,*7F
$GPRMC,100816,A,3407.2425,N,11741.8708,W,60.26,65.00,220915,,,*25
$PNAVA,,5.000000,*7F
$GPRMC,100817,A,3407.2506,N,11741.8517,W,60.26,56.00,220915,,,*28
$PNAVA,,5.000000,*7F
$GPRMC,100818,A,3407.2596,N,11741.8355,W,60.26,56.00,220915,,,*2E
$PNAVA,,5.000000,*7F
$GPRMC,100819,A,3407.2695,N,11741.8177,W,60.26,56.00,220915,,,*2D
$PNAVA,,5.000000,*7F
$GPRMC,100820,A,3407.2794,N,11741.8000,W,60.26,56.00,220915,,,*26
$PNAVA,,5.000000,*7F
$GPRMC,100821,A,3407.2894,N,11741.7821,W,60.26,56.00,220915,,,*2C
$PNAVA,,5.000000,*7F
$GPRMC,100822,A,3407.3000,N,11741.7649,W,60.26,53.00,220915,,,*2E
$PNAVA,,5.000000,*7F
$GPRMC,100823,A,3407.3107,N,11741.7479,W,60.26,53.00,220915,,,*28
$PNAVA,,5.000000,*7F
$GPRMC,100824,A,3407.3205,N,11741.7324,W,60.26,52.00,220915,,,*20
$PNAVA,,5.000000,*7F
$GPRMC,100825,A,3407.3313,N,11741.7154,W,60.26,52.00,220915,,,*22
$PNAVA,,5.000000,*7F
$GPRMC,100827,A,3407.3424,N,11741.6986,W,60.26,50.00,220915,,,*27
$PNAVA,,5.000000,*7F
$GPRMC,100828,A,3407.3538,N,11741.6821,W,60.26,50.00,220915,,,*28
$PNAVA,,5.000000,*7F
$GPRMC,100829,A,3407.3676,N,11741.6633,W,60.26,48.00,220915,,,*24
$PNAVA,,5.000000,*7F
$GPRMC,100830,A,3407.3794,N,11741.6474,W,60.26,48.00,220915,,,*20
$PNAVA,,5.000000,*7F
$GPRMC,100831,A,3407.3902,N,11741.6329,W,60.26,48.00,220915,,,*2F
$PNAVA,,5.000000,*7F
$GPRMC,100832,A,3407.4021,N,11741.6170,W,60.26,47.00,220915,,,*22
$PNAVA,,5.000000,*7F
$GPRMC,100833,A,3407.4142,N,11741.6012,W,60.26,47.00,220915,,,*22
$PNAVA,,5.000000,*7F
$GPRMC,100834,A,3407.4260,N,11741.5852,W,60.26,49.00,220915,,,*27
$PNAVA,,5.000000,*7F
$GPRMC,100835,A,3407.4375,N,11741.5688,W,60.26,49.00,220915,,,*2A
$PNAVA,,5.000000,*7F
$GPRMC,100836,A,3407.4496,N,11741.5519,W,60.26,48.00,220915,,,*29
$PNAVA,,5.000000,*7F
$GPRMC,100837,A,3407.4603,N,11741.5373,W,60.26,48.00,220915,,,*2C
$PNAVA,,5.000000,*7F
$GPRMC,100838,A,3407.4720,N,11741.5212,W,60.26,48.00,220915,,,*25
$PNAVA,,5.000000,*7F
$GPRMC,100839,A,3407.4838,N,11741.5051,W,60.26,48.00,220915,,,*27
$PNAVA,,5.000000,*7F
$GPRMC,100840,A,3407.4954,N,11741.4889,W,60.26,49.00,220915,,,*2F
$PNAVA,,5.000000,*7F
$GPRMC,100841,A,3407.5070,N,11741.4725,W,60.26,49.00,220915,,,*29
$PNAVA,,5.000000,*7F
$GPRMC,100842,A,3407.5185,N,11741.4563,W,60.26,49.00,220915,,,*21
$PNAVA,,5.000000,*7F
$GPRMC,100843,A,3407.5290,N,11741.4415,W,60.26,49.00,220915,,,*27
$PNAVA,,5.000000,*7F
$GPRMC,100844,A,3407.5406,N,11741.4252,W,60.26,49.00,220915,,,*2C
$PNAVA,,5.000000,*7F
$GPRMC,100845,A,3407.5521,N,11741.4089,W,60.26,49.00,220915,,,*2D
$PNAVA,,5.000000,*7F
$GPRMC,100846,A,3407.5637,N,11741.3926,W,60.26,49.00,220915,,,*21
$PNAVA,,5.000000,*7F
$GPRMC,100847,A,3407.5752,N,11741.3764,W,60.26,49.00,220915,,,*2A
$PNAVA,,5.000000,*7F
$GPRMC,100848,A,3407.5868,N,11741.3600,W,60.26,49.00,220915,,,*20
$PNAVA,,5.000000,*7F
$GPRMC,100849,A,3407.5973,N,11741.3452,W,60.26,50.00,220915,,,*27
$PNAVA,,5.000000,*7F
$GPRMC,100850,A,3407.6087,N,11741.3288,W,60.26,50.00,220915,,,*2F
$PNAVA,,5.000000,*7F
$GPRMC,100851,A,3407.6202,N,11741.3124,W,60.26,50.00,220915,,,*24
$PNAVA,,5.000000,*7F
$GPRMC,100852,A,3407.6316,N,11741.2960,W,60.26,50.00,220915,,,*2A
$PNAVA,,5.000000,*7F
$GPRMC,100853,A,3407.6431,N,11741.2796,W,60.26,50.00,220915,,,*2E
$PNAVA,,5.000000,*7F
$GPRMC,100854,A,3407.6546,N,11741.2633,W,60.26,50.00,220915,,,*26
$PNAVA,,5.000000,*7F
$GPRMC,100855,A,3407.6649,N,11741.2483,W,60.26,50.00,220915,,,*22
$PNAVA,,5.000000,*7F
$GPRMC,100856,A,3407.6764,N,11741.2319,W,60.26,50.00,220915,,,*2B
$PNAVA,,5.000000,*7F
$GPRMC,100857,A,3407.6879,N,11741.2156,W,60.26,49.00,220915,,,*28
$PNAVA,,5.000000,*7F
$GPRMC,100858,A,3407.6995,N,11741.1993,W,60.26,49.00,220915,,,*26
$PNAVA,,5.000000,*7F
$GPRMC,100859,A,3407.7111,N,11741.1831,W,60.26,49.00,220915,,,*2B
$PNAVA,,5.000000,*7F
$GPRMC,100900,A,3407.7227,N,11741.1668,W,60.26,49.00,220915,,,*22
$PNAVA,,5.000000,*7F
$GPRMC,100901,A,3407.7333,N,11741.1521,W,60.26,49.00,220915,,,*29
$PNAVA,,5.000000,*7F
$GPRMC,100902,A,3407.7449,N,11741.1359,W,60.26,49.00,220915,,,*29
$PNAVA,,5.000000,*7F
$GPRMC,100903,A,3407.7565,N,11741.1196,W,60.26,49.00,220915,,,*26
$PNAVA,,5.000000,*7F
$GPRMC,100904,A,3407.7681,N,11741.1034,W,60.26,49.00,220915,,,*21
$PNAVA,,5.000000,*7F
$GPRMC,100905,A,3407.7797,N,11741.0872,W,60.26,49.00,220915,,,*2D
$PNAVA,,5.000000,*7F
$GPRMC,100906,A,3407.7937,N,11741.0676,W,60.26,49.00,220915,,,*20
$PNAVA,,5.000000,*7F
$GPRMC,100907,A,3407.8042,N,11741.0528,W,60.26,49.00,220915,,,*2D
$PNAVA,,5.000000,*7F
$GPRMC,100908,A,3407.8158,N,11741.0366,W,60.26,49.00,220915,,,*24
$PNAVA,,5.000000,*7F
$GPRMC,100909,A,3407.8274,N,11741.0203,W,60.26,49.00,220915,,,*2A
$PNAVA,,5.000000,*7F
$GPRMC,100910,A,3407.8389,N,11741.0041,W,60.26,49.00,220915,,,*25
$PNAVA,,5.000000,*7F
$GPRMC,100911,A,3407.8505,N,11740.9878,W,60.26,49.00,220915,,,*2C
$PNAVA,,5.000000,*7F
$GPRMC,100912,A,3407.8621,N,11740.9715,W,60.26,49.00,220915,,,*2E
$PNAVA,,5.000000,*7F
$GPRMC,100913,A,3407.8727,N,11740.9567,W,60.26,49.00,220915,,,*2F
$PNAVA,,5.000000,*7F
$GPRMC,100914,A,3407.8838,N,11740.9401,W,60.26,51.00,220915,,,*21
$PNAVA,,5.000000,*7F
$GPRMC,100915,A,3407.8949,N,11740.9232,W,60.26,51.00,220915,,,*21
$PNAVA,,5.000000,*7F
$GPRMC,100916,A,3407.9058,N,11740.9064,W,60.26,51.00,220915,,,*2B
$PNAVA,,5.000000,*7F
$GPRMC,100917,A,3407.9174,N,11740.8884,W,60.26,52.00,220915,,,*21
$PNAVA,,5.000000,*7F
$GPRMC,100918,A,3407.9273,N,11740.8707,W,60.26,56.00,220915,,,*2A
$PNAVA,,5.000000,*7F
$GPRMC,100919,A,3407.9363,N,11740.8545,W,60.26,56.00,220915,,,*2F
$PNAVA,,5.000000,*7F
$GPRMC,100920,A,3407.9461,N,11740.8366,W,60.26,56.00,220915,,,*27
$PNAVA,,5.000000,*7F
$GPRMC,100921,A,3407.9552,N,11740.8182,W,60.26,60.00,220915,,,*2A
$PNAVA,,5.000000,*7F
$GPRMC,100922,A,3407.9639,N,11740.7995,W,60.26,60.00,220915,,,*26
$PNAVA,,5.000000,*7F
$GPRMC,100923,A,3407.9727,N,11740.7808,W,60.26,60.00,220915,,,*2C
$PNAVA,,5.000000,*7F
$GPRMC,100924,A,3407.9803,N,11740.7614,W,60.26,65.00,220915,,,*24
$PNAVA,,5.000000,*7F
$GPRMC,100925,A,3407.9873,N,11740.7438,W,60.26,65.00,220915,,,*2E
$PNAVA,,5.000000,*7F
$GPRMC,100926,A,3407.9948,N,11740.7243,W,60.26,67.00,220915,,,*2C
$PNAVA,,5.000000,*7F
$GPRMC,100927,A,3408.0017,N,11740.7046,W,60.26,67.00,220915,,,*2F
$PNAVA,,5.000000,*7F
$GPRMC,100928,A,3408.0087,N,11740.6849,W,60.26,67.00,220915,,,*2F
$PNAVA,,5.000000,*7F
$GPRMC,100929,A,3408.0156,N,11740.6651,W,60.26,67.00,220915,,,*24
$PNAVA,,5.000000,*7F
$GPRMC,100930,A,3408.0219,N,11740.6451,W,60.26,71.00,220915,,,*21
$PNAVA,,5.000000,*7F
$GPRMC,100931,A,3408.0272,N,11740.6267,W,60.26,71.00,220915,,,*2E
$PNAVA,,5.000000,*7F
$GPRMC,100932,A,3408.0331,N,11740.6064,W,60.26,71.00,220915,,,*2A
$PNAVA,,5.000000,*7F
$GPRMC,100933,A,3408.0386,N,11740.5860,W,60.26,74.00,220915,,,*2D
$PNAVA,,5.000000,*7F
$GPRMC,100934,A,3408.0433,N,11740.5653,W,60.26,76.00,220915,,,*2F
$PNAVA,,5.000000,*7F
$GPRMC,100935,A,3408.0476,N,11740.5445,W,60.26,76.00,220915,,,*2A
$PNAVA,,5.000000,*7F
$GPRMC,100936,A,3408.0516,N,11740.5236,W,60.26,78.00,220915,,,*22
$PNAVA,,5.000000,*7F
$GPRMC,100937,A,3408.0549,N,11740.5046,W,60.26,78.00,220915,,,*2C
$PNAVA,,5.000000,*7F
$GPRMC,100939,A,3408.0587,N,11740.4798,W,60.26,80.00,220915,,,*22
$PNAVA,,5.000000,*7F
$GPRMC,100940,A,3408.0616,N,11740.4587,W,60.26,80.00,220915,,,*2B
$PNAVA,,5.000000,*7F
$GPRMC,100941,A,3408.0640,N,11740.4374,W,60.26,83.00,220915,,,*20
$PNAVA,,5.000000,*7F
$GPRMC,100942,A,3408.0662,N,11740.4161,W,60.26,83.00,220915,,,*25
$PNAVA,,5.000000,*7F
$GPRMC,100943,A,3408.0683,N,11740.3948,W,60.26,83.00,220915,,,*2F
$PNAVA,,5.000000,*7F
$GPRMC,100944,A,3408.0702,N,11740.3754,W,60.26,86.00,220915,,,*26
$PNAVA,,5.000000,*7F
$GPRMC,100945,A,3408.0714,N,11740.3540,W,60.26,86.00,220915,,,*27
$PNAVA,,5.000000,*7F
$GPRMC,100946,A,3408.0723,N,11740.3325,W,60.26,90.00,220915,,,*22
$PNAVA,,5.000000,*7F
$GPRMC,100947,A,3408.0723,N,11740.3111,W,60.26,90.00,220915,,,*26
$PNAVA,,5.000000,*7F
$GPRMC,100948,A,3408.0723,N,11740.2896,W,60.26,90.00,220915,,,*2E
$PNAVA,,5.000000,*7F
$GPRMC,100949,A,3408.0723,N,11740.2682,W,60.26,90.00,220915,,,*24
$PNAVA,,5.000000,*7F
$GPRMC,100950,A,3408.0723,N,11740.2487,W,60.26,90.00,220915,,,*2B
$PNAVA,,5.000000,*7F
$GPRMC,100951,A,3408.0723,N,11740.2272,W,60.26,90.00,220915,,,*26
$PNAVA,,5.000000,*7F
$GPRMC,100952,A,3408.0723,N,11740.2058,W,60.26,90.00,220915,,,*2F
$PNAVA,,5.000000,*7F
$GPRMC,100953,A,3408.0723,N,11740.1843,W,60.26,90.00,220915,,,*2F
$PNAVA,,5.000000,*7F
$GPRMC,100954,A,3408.0723,N,11740.1629,W,60.26,90.00,220915,,,*2A
$PNAVA,,5.000000,*7F
$GPRMC,100955,A,3408.0723,N,11740.1414,W,60.26,90.00,220915,,,*27
$PNAVA,,5.000000,*7F
$GPRMC,100956,A,3408.0723,N,11740.1219,W,60.26,90.00,220915,,,*2F
$PNAVA,,5.000000,*7F
$GPRMC,100957,A,3408.0723,N,11740.1005,W,60.26,90.00,220915,,,*21
$PNAVA,,5.000000,*7F
$GPRMC,100958,A,3408.0722,N,11740.0790,W,60.26,90.00,220915,,,*25
$PNAVA,,5.000000,*7F
$GPRMC,100959,A,3408.0720,N,11740.0576,W,60.26,90.00,220915,,,*2C
$PNAVA,,5.000000,*7F
$GPRMC,101000,A,3408.0719,N,11740.0361,W,60.26,90.00,220915,,,*22
$PNAVA,,5.000000,*7F
$GPRMC,101001,A,3408.0717,N,11740.0147,W,60.26,90.00,220915,,,*2B
$PNAVA,,5.000000,*7F
$GPRMC,101002,A,3408.0715,N,11739.9952,W,60.26,90.00,220915,,,*21
$PNAVA,,5.000000,*7F
$GPRMC,101003,A,3408.0713,N,11739.9737,W,60.26,90.00,220915,,,*2B
$PNAVA,,5.000000,*7F
$GPRMC,101004,A,3408.0712,N,11739.9474,W,60.26,90.00,220915,,,*29
$PNAVA,,5.000000,*7F
$GPRMC,101005,A,3408.0712,N,11739.9259,W,60.26,90.00,220915,,,*21
$PNAVA,,5.000000,*7F
$GPRMC,101006,A,3408.0712,N,11739.9045,W,60.26,90.00,220915,,,*2D
$PNAVA,,5.000000,*7F
$GPRMC,101007,A,3408.0712,N,11739.8830,W,60.26,90.00,220915,,,*27
$PNAVA,,5.000000,*7F
$GPRMC,101008,A,3408.0712,N,11739.8635,W,60.26,90.00,220915,,,*23
$PNAVA,,5.000000,*7F
$GPRMC,101009,A,3408.0712,N,11739.8421,W,60.26,90.00,220915,,,*25
$PNAVA,,5.000000,*7F
$GPRMC,101010,A,3408.0712,N,11739.8206,W,60.26,90.00,220915,,,*2E
$PNAVA,,5.000000,*7F
$GPRMC,101011,A,3408.0712,N,11739.7991,W,60.26,90.00,220915,,,*25
$PNAVA,,5.000000,*7F
$GPRMC,101012,A,3408.0712,N,11739.7777,W,60.26,90.00,220915,,,*20
$PNAVA,,5.000000,*7F
$GPRMC,101013,A,3408.0712,N,11739.7562,W,60.26,90.00,220915,,,*27
$PNAVA,,5.000000,*7F
$GPRMC,101014,A,3408.0712,N,11739.7367,W,60.26,90.00,220915,,,*23
$PNAVA,,5.000000,*7F
$GPRMC,101015,A,3408.0712,N,11739.7153,W,60.26,90.00,220915,,,*27
$PNAVA,,5.000000,*7F
$GPRMC,101016,A,3408.0712,N,11739.6938,W,60.26,90.00,220915,,,*20
$PNAVA,,5.000000,*7F
$GPRMC,101017,A,3408.0712,N,11739.6724,W,60.26,90.00,220915,,,*22
$PNAVA,,5.000000,*7F
$GPRMC,101018,A,3408.0712,N,11739.6509,W,60.26,90.00,220915,,,*20
$PNAVA,,5.000000,*7F
$GPRMC,101019,A,3408.0712,N,11739.6295,W,60.26,90.00,220915,,,*23
$PNAVA,,5.000000,*7F
$GPRMC,101020,A,3408.0712,N,11739.6100,W,60.26,90.00,220915,,,*26
$PNAVA,,5.000000,*7F
$GPRMC,101021,A,3408.0712,N,11739.5885,W,60.26,90.00,220915,,,*20
$PNAVA,,5.000000,*7F
