$PNAVA,,5.000000,*7F
$GPRMC,103418,A,4228.1270,N,08323.3552,W,48.60,276.00,020719,,,*1B
$PNAVA,,5.000000,*7F
$GPRMC,103419,A,4228.1282,N,08323.3723,W,48.60,276.00,020719,,,*13
$PNAVA,,5.000000,*7F
$GPRMC,103420,A,4228.1240,N,08323.3765,W,19.44,189.00,020719,,,*14
$PNAVA,,5.000000,*7F
$GPRMC,103421,A,4228.1184,N,08323.3770,W,19.44,180.00,020719,,,*13
$PNAVA,,5.000000,*7F
$GPRMC,103422,A,4228.1134,N,08323.3770,W,19.44,180.00,020719,,,*1B
$PNAVA,,5.000000,*7F
$GPRMC,103423,A,4228.1078,N,08323.3770,W,19.44,180.00,020719,,,*13
$PNAVA,,5.000000,*7F
$GPRMC,103424,A,4228.1022,N,08323.3770,W,19.44,180.00,020719,,,*1B
$PNAVA,,5.000000,*7F
$GPRMC,103425,A,4228.0982,N,08323.3785,W,19.44,270.00,020719,,,*1E
$PNAVA,,5.000000,*7F
$GPRMC,103426,A,4228.0982,N,08323.3860,W,19.44,270.00,020719,,,*19
$PNAVA,,5.000000,*7F
$GPRMC,103427,A,4228.0984,N,08323.3938,W,19.44,276.00,020719,,,*14
$PNAVA,,5.000000,*7F
$GPRMC,103428,A,4228.0990,N,08323.4006,W,19.44,276.00,020719,,,*1D
$PNAVA,,5.000000,*7F
$GPRMC,103429,A,4228.0996,N,08323.4084,W,19.44,276.00,020719,,,*10
$PNAVA,,5.000000,*7F
$GPRMC,103430,A,4228.1001,N,08323.4159,W,19.44,276.00,020719,,,*1F
$PNAVA,,5.000000,*7F
$GPRMC,103431,A,4228.1004,N,08323.4230,W,19.44,270.00,020719,,,*11
$PNAVA,,5.000000,*7F
$GPRMC,103432,A,4228.1004,N,08323.4305,W,19.44,270.00,020719,,,*15
$PNAVA,,5.000000,*7F
$GPRMC,103433,A,4228.1009,N,08323.4383,W,19.44,276.00,020719,,,*11
$PNAVA,,5.000000,*7F
$GPRMC,103434,A,4228.1014,N,08323.4451,W,19.44,276.00,020719,,,*12
$PNAVA,,5.000000,*7F
$GPRMC,103435,A,4228.1020,N,08323.4529,W,19.44,276.00,020719,,,*1A
$PNAVA,,5.000000,*7F
$GPRMC,103436,A,4228.1026,N,08323.4607,W,19.44,270.00,020719,,,*16
$PNAVA,,5.000000,*7F
$GPRMC,103437,A,4228.1026,N,08323.4675,W,19.44,270.00,020719,,,*12
$PNAVA,,5.000000,*7F
$GPRMC,103438,A,4228.1060,N,08323.4701,W,19.44,0.00,020719,,,*18
$PNAVA,,5.000000,*7F
$GPRMC,103439,A,4228.1116,N,08323.4701,W,19.44,0.00,020719,,,*19
$PNAVA,,5.000000,*7F
$GPRMC,103440,A,4228.1171,N,08323.4701,W,19.44,0.00,020719,,,*16
$PNAVA,,5.000000,*7F
$GPRMC,103441,A,4228.1221,N,08323.4697,W,19.44,14.00,020719,,,*2A
$PNAVA,,5.000000,*7F
$GPRMC,103442,A,4228.1278,N,08323.4686,W,19.44,0.00,020719,,,*10
$PNAVA,,5.000000,*7F
$GPRMC,103443,A,4228.1315,N,08323.4632,W,48.60,93.00,020719,,,*2C
$PNAVA,,5.000000,*7F
$GPRMC,103444,A,4228.1308,N,08323.4461,W,48.60,93.00,020719,,,*23
$PNAVA,,5.000000,*7F
$GPRMC,103445,A,4228.1300,N,08323.4272,W,48.60,93.00,020719,,,*2E
$PNAVA,,5.000000,*7F
$GPRMC,103446,A,4228.1294,N,08323.4088,W,48.60,92.00,020719,,,*27
$PNAVA,,5.000000,*7F
$GPRMC,103447,A,4228.1289,N,08323.3916,W,48.60,92.00,020719,,,*23
$PNAVA,,5.000000,*7F
$GPRMC,103448,A,4228.1283,N,08323.3729,W,48.60,96.00,020719,,,*20
$PNAVA,,5.000000,*7F
$GPRMC,103449,A,4228.1269,N,08323.3542,W,48.60,96.00,020719,,,*2A
$PNAVA,,5.000000,*7F
$GPRMC,103450,A,4228.1261,N,08323.3373,W,48.60,92.00,020719,,,*2A
$PNAVA,,5.000000,*7F
$GPRMC,103451,A,4228.1255,N,08323.3185,W,48.60,92.00,020719,,,*27
$PNAVA,,5.000000,*7F
$GPRMC,103452,A,4228.1252,N,08323.2995,W,48.60,90.00,020719,,,*29
$PNAVA,,5.000000,*7F
$GPRMC,103453,A,4228.1295,N,08323.2966,W,19.44,0.00,020719,,,*14
$PNAVA,,5.000000,*7F
$GPRMC,103454,A,4228.1351,N,08323.2963,W,19.44,7.00,020719,,,*18
$PNAVA,,5.000000,*7F
$GPRMC,103455,A,4228.1406,N,08323.2954,W,19.44,7.00,020719,,,*18
$PNAVA,,5.000000,*7F
$GPRMC,103456,A,4228.1455,N,08323.2968,W,19.44,344.00,020719,,,*16
$PNAVA,,5.000000,*7F
$GPRMC,103457,A,4228.1510,N,08323.2990,W,19.44,344.00,020719,,,*10
$PNAVA,,5.000000,*7F
$GPRMC,103458,A,4228.1557,N,08323.3017,W,19.44,334.00,020719,,,*1C
$PNAVA,,5.000000,*7F
$GPRMC,103459,A,4228.1606,N,08323.3049,W,19.44,334.00,020719,,,*11
$PNAVA,,5.000000,*7F
$GPRMC,103500,A,4228.1657,N,08323.3082,W,19.44,334.00,020719,,,*1F
$PNAVA,,5.000000,*7F
$GPRMC,103501,A,4228.1702,N,08323.3112,W,19.44,334.00,020719,,,*17
$PNAVA,,5.000000,*7F
$GPRMC,103502,A,4228.1752,N,08323.3144,W,19.44,334.00,020719,,,*12
$PNAVA,,5.000000,*7F
$GPRMC,103503,A,4228.1806,N,08323.3166,W,19.44,355.00,020719,,,*1A
$PNAVA,,5.000000,*7F
$GPRMC,103504,A,4228.1857,N,08323.3173,W,19.44,355.00,020719,,,*1D
$PNAVA,,5.000000,*7F
$GPRMC,103505,A,4228.1912,N,08323.3180,W,19.44,351.00,020719,,,*14
$PNAVA,,5.000000,*7F
$GPRMC,103506,A,4228.1968,N,08323.3191,W,19.44,351.00,020719,,,*1A
$PNAVA,,5.000000,*7F
$GPRMC,103507,A,4228.2017,N,08323.3202,W,19.44,351.00,020719,,,*10
$PNAVA,,5.000000,*7F
$GPRMC,103508,A,4228.2073,N,08323.3213,W,19.44,351.00,020719,,,*1D
$PNAVA,,5.000000,*7F
$GPRMC,103509,A,4228.2128,N,08323.3206,W,19.44,26.00,020719,,,*24
$PNAVA,,5.000000,*7F
$GPRMC,103510,A,4228.2173,N,08323.3176,W,19.44,26.00,020719,,,*26
$PNAVA,,5.000000,*7F
$GPRMC,103511,A,4228.2227,N,08323.3158,W,19.44,8.00,020719,,,*15
$PNAVA,,5.000000,*7F
$GPRMC,103512,A,4228.2282,N,08323.3150,W,19.44,358.00,020719,,,*17
$PNAVA,,5.000000,*7F
$GPRMC,103513,A,4228.2332,N,08323.3152,W,19.44,358.00,020719,,,*1E
$PNAVA,,5.000000,*7F
$GPRMC,103514,A,4228.2388,N,08323.3154,W,19.44,358.00,020719,,,*1E
$PNAVA,,5.000000,*7F
$GPRMC,103515,A,4228.2444,N,08323.3156,W,19.44,358.00,020719,,,*1A
$PNAVA,,5.000000,*7F
$GPRMC,103516,A,4228.2494,N,08323.3158,W,19.44,358.00,020719,,,*1A
$PNAVA,,5.000000,*7F
$GPRMC,103517,A,4228.2551,N,08323.3161,W,19.44,358.00,020719,,,*19
$PNAVA,,5.000000,*7F
$GPRMC,103518,A,4228.2607,N,08323.3162,W,19.44,358.00,020719,,,*15
$PNAVA,,5.000000,*7F
$GPRMC,103519,A,4228.2657,N,08323.3165,W,19.44,358.00,020719,,,*16
$PNAVA,,5.000000,*7F
$GPRMC,103520,A,4228.2713,N,08323.3167,W,19.44,358.00,020719,,,*1F
$PNAVA,,5.000000,*7F
$GPRMC,103521,A,4228.2765,N,08323.3168,W,19.44,358.00,020719,,,*10
$PNAVA,,5.000000,*7F
$GPRMC,103522,A,4228.2821,N,08323.3171,W,19.44,358.00,020719,,,*14
$PNAVA,,5.000000,*7F
$GPRMC,103523,A,4228.2877,N,08323.3173,W,19.44,358.00,020719,,,*14
$PNAVA,,5.000000,*7F
$GPRMC,103524,A,4228.2927,N,08323.3175,W,19.44,358.00,020719,,,*11
$PNAVA,,5.000000,*7F
$GPRMC,103525,A,4228.2983,N,08323.3177,W,19.44,358.00,020719,,,*1C
$PNAVA,,5.000000,*7F
$GPRMC,103526,A,4228.3039,N,08323.3179,W,19.44,358.00,020719,,,*18
$PNAVA,,5.000000,*7F
$GPRMC,103527,A,4228.3089,N,08323.3181,W,19.44,358.00,020719,,,*15
$PNAVA,,5.000000,*7F
$GPRMC,103528,A,4228.3145,N,08323.3183,W,19.44,358.00,020719,,,*19
$PNAVA,,5.000000,*7F
$GPRMC,103529,A,4228.3200,N,08323.3185,W,19.44,358.00,020719,,,*1C
$PNAVA,,5.000000,*7F
$GPRMC,103530,A,4228.3251,N,08323.3188,W,19.44,358.00,020719,,,*1D
$PNAVA,,5.000000,*7F
$GPRMC,103531,A,4228.3306,N,08323.3189,W,19.44,358.00,020719,,,*1E
$PNAVA,,5.000000,*7F
$GPRMC,103532,A,4228.3358,N,08323.3186,W,19.44,86.00,020719,,,*29
$PNAVA,,5.000000,*7F
$GPRMC,103533,A,4228.3363,N,08323.3118,W,19.44,86.00,020719,,,*27
$PNAVA,,5.000000,*7F
$GPRMC,103534,A,4228.3367,N,08323.3043,W,19.44,86.00,020719,,,*2B
$PNAVA,,5.000000,*7F
$GPRMC,103535,A,4228.3372,N,08323.2968,W,19.44,86.00,020719,,,*2F
$PNAVA,,5.000000,*7F
$GPRMC,103536,A,4228.3376,N,08323.2900,W,19.44,86.00,020719,,,*26
$PNAVA,,5.000000,*7F
$GPRMC,103537,A,4228.3380,N,08323.2824,W,19.44,86.00,020719,,,*29
$PNAVA,,5.000000,*7F
$GPRMC,103538,A,4228.3385,N,08323.2749,W,19.44,86.00,020719,,,*27
$PNAVA,,5.000000,*7F
$GPRMC,103539,A,4228.3389,N,08323.2681,W,19.44,86.00,020719,,,*2F
$PNAVA,,5.000000,*7F
$GPRMC,103540,A,4228.3393,N,08323.2606,W,19.44,86.00,020719,,,*25
$PNAVA,,5.000000,*7F
$GPRMC,103541,A,4228.3398,N,08323.2530,W,19.44,86.00,020719,,,*29
$PNAVA,,5.000000,*7F
$GPRMC,103542,A,4228.3402,N,08323.2462,W,19.44,86.00,020719,,,*28
$PNAVA,,5.000000,*7F
$GPRMC,103543,A,4228.3406,N,08323.2387,W,19.44,86.00,020719,,,*21
$PNAVA,,5.000000,*7F
$GPRMC,103544,A,4228.3411,N,08323.2312,W,19.44,86.00,020719,,,*2C
$PNAVA,,5.000000,*7F
$GPRMC,103545,A,4228.3385,N,08323.2262,W,19.44,176.00,020719,,,*1F
$PNAVA,,5.000000,*7F
$GPRMC,103546,A,4228.3331,N,08323.2256,W,19.44,176.00,020719,,,*14
$PNAVA,,5.000000,*7F
$GPRMC,103547,A,4228.3275,N,08323.2250,W,19.44,176.00,020719,,,*12
$PNAVA,,5.000000,*7F
$GPRMC,103548,A,4228.3225,N,08323.2246,W,19.44,176.00,020719,,,*1F
$PNAVA,,5.000000,*7F
$GPRMC,103549,A,4228.3169,N,08323.2240,W,19.44,176.00,020719,,,*13
$PNAVA,,5.000000,*7F
$GPRMC,103550,A,4228.3114,N,08323.2234,W,19.44,176.00,020719,,,*12
$PNAVA,,5.000000,*7F
$GPRMC,103551,A,4228.3108,N,08323.2297,W,19.44,267.00,020719,,,*14
$PNAVA,,5.000000,*7F
$GPRMC,103552,A,4228.3105,N,08323.2373,W,19.44,267.00,020719,,,*11
$PNAVA,,5.000000,*7F
$GPRMC,103553,A,4228.3102,N,08323.2448,W,19.44,267.00,020719,,,*18
$PNAVA,,5.000000,*7F
$GPRMC,103554,A,4228.3099,N,08323.2517,W,19.44,267.00,020719,,,*17
$PNAVA,,5.000000,*7F
$GPRMC,103555,A,4228.3096,N,08323.2592,W,19.44,267.00,020719,,,*14
$PNAVA,,5.000000,*7F
$GPRMC,103556,A,4228.3093,N,08323.2667,W,19.44,267.00,020719,,,*1B
$PNAVA,,5.000000,*7F
$GPRMC,103557,A,4228.3091,N,08323.2736,W,19.44,267.00,020719,,,*1D
$PNAVA,,5.000000,*7F
$GPRMC,103558,A,4228.3088,N,08323.2811,W,19.44,267.00,020719,,,*10
$PNAVA,,5.000000,*7F
$GPRMC,103559,A,4228.3085,N,08323.2888,W,19.44,267.00,020719,,,*1C
$PNAVA,,5.000000,*7F
$GPRMC,103600,A,4228.3082,N,08323.2955,W,19.44,267.00,020719,,,*15
$PNAVA,,5.000000,*7F
$GPRMC,103601,A,4228.3079,N,08323.3030,W,19.44,267.00,020719,,,*1B
$PNAVA,,5.000000,*7F
$GPRMC,103602,A,4228.3046,N,08323.3063,W,19.44,177.00,020719,,,*10
$PNAVA,,5.000000,*7F
$GPRMC,103603,A,4228.2997,N,08323.3060,W,19.44,177.00,020719,,,*16
$PNAVA,,5.000000,*7F
$GPRMC,103604,A,4228.2940,N,08323.3056,W,19.44,177.00,020719,,,*1E
$PNAVA,,5.000000,*7F
$GPRMC,103605,A,4228.2890,N,08323.3053,W,19.44,177.00,020719,,,*16
$PNAVA,,5.000000,*7F
$GPRMC,103606,A,4228.2835,N,08323.3050,W,19.44,177.00,020719,,,*19
$PNAVA,,5.000000,*7F
$GPRMC,103607,A,4228.2779,N,08323.3046,W,19.44,177.00,020719,,,*18
$PNAVA,,5.000000,*7F
$GPRMC,103608,A,4228.2728,N,08323.3042,W,19.44,177.00,020719,,,*17
$PNAVA,,5.000000,*7F
$GPRMC,103609,A,4228.2673,N,08323.3039,W,19.44,177.00,020719,,,*15
$PNAVA,,5.000000,*7F
$GPRMC,103610,A,4228.2617,N,08323.3035,W,19.44,177.00,020719,,,*13
$PNAVA,,5.000000,*7F
$GPRMC,103611,A,4228.2566,N,08323.3032,W,19.44,177.00,020719,,,*10
$PNAVA,,5.000000,*7F
$GPRMC,103612,A,4228.2511,N,08323.3028,W,19.44,177.00,020719,,,*18
$PNAVA,,5.000000,*7F
$GPRMC,103613,A,4228.2455,N,08323.3024,W,19.44,177.00,020719,,,*14
$PNAVA,,5.000000,*7F
$GPRMC,103614,A,4228.2404,N,08323.3021,W,19.44,177.00,020719,,,*12
$PNAVA,,5.000000,*7F
$GPRMC,103615,A,4228.2349,N,08323.3017,W,19.44,177.00,020719,,,*18
$PNAVA,,5.000000,*7F
$GPRMC,103616,A,4228.2293,N,08323.3014,W,19.44,177.00,020719,,,*1E
$PNAVA,,5.000000,*7F
$GPRMC,103617,A,4228.2243,N,08323.3011,W,19.44,177.00,020719,,,*17
$PNAVA,,5.000000,*7F
$GPRMC,103618,A,4228.2187,N,08323.3013,W,19.44,185.00,020719,,,*1C
$PNAVA,,5.000000,*7F
$GPRMC,103619,A,4228.2132,N,08323.3020,W,19.44,185.00,020719,,,*13
$PNAVA,,5.000000,*7F
$GPRMC,103620,A,4228.2086,N,08323.3045,W,19.44,208.00,020719,,,*12
$PNAVA,,5.000000,*7F
$GPRMC,103621,A,4228.2037,N,08323.3080,W,19.44,208.00,020719,,,*10
$PNAVA,,5.000000,*7F
$GPRMC,103622,A,4228.1989,N,08323.3114,W,19.44,208.00,020719,,,*10
$PNAVA,,5.000000,*7F
$GPRMC,103623,A,4228.1939,N,08323.3150,W,19.44,208.00,020719,,,*1A
$PNAVA,,5.000000,*7F
$GPRMC,103624,A,4228.1900,N,08323.3178,W,19.44,175.00,020719,,,*14
$PNAVA,,5.000000,*7F
$GPRMC,103625,A,4228.1843,N,08323.3171,W,19.44,175.00,020719,,,*1A
$PNAVA,,5.000000,*7F
$GPRMC,103626,A,4228.1792,N,08323.3165,W,19.44,175.00,020719,,,*1F
$PNAVA,,5.000000,*7F
$GPRMC,103627,A,4228.1741,N,08323.3137,W,19.44,154.00,020719,,,*14
$PNAVA,,5.000000,*7F
$GPRMC,103628,A,4228.1690,N,08323.3104,W,19.44,154.00,020719,,,*16
$PNAVA,,5.000000,*7F
$GPRMC,103629,A,4228.1645,N,08323.3075,W,19.44,154.00,020719,,,*18
$PNAVA,,5.000000,*7F
$GPRMC,103630,A,4228.1595,N,08323.3042,W,19.44,154.00,020719,,,*1A
$PNAVA,,5.000000,*7F
$GPRMC,103631,A,4228.1545,N,08323.3009,W,19.44,154.00,020719,,,*19
$PNAVA,,5.000000,*7F
$GPRMC,103632,A,4228.1498,N,08323.2985,W,19.44,164.00,020719,,,*14
$PNAVA,,5.000000,*7F
$GPRMC,103633,A,4228.1443,N,08323.2964,W,19.44,164.00,020719,,,*1C
$PNAVA,,5.000000,*7F
$GPRMC,103634,A,4228.1390,N,08323.2956,W,19.44,187.00,020719,,,*1E
$PNAVA,,5.000000,*7F
$GPRMC,103635,A,4228.1339,N,08323.2964,W,19.44,187.00,020719,,,*1D
$PNAVA,,5.000000,*7F
$GPRMC,103636,A,4228.1283,N,08323.2966,W,19.44,180.00,020719,,,*1B
$PNAVA,,5.000000,*7F
$GPRMC,103637,A,4228.1252,N,08323.3053,W,48.60,270.00,020719,,,*16
$PNAVA,,5.000000,*7F
$GPRMC,103638,A,4228.1256,N,08323.3227,W,48.60,272.00,020719,,,*1E
$PNAVA,,5.000000,*7F
$GPRMC,103639,A,4228.1261,N,08323.3416,W,48.60,272.00,020719,,,*1F
$PNAVA,,5.000000,*7F
$GPRMC,103640,A,4228.1273,N,08323.3607,W,48.60,276.00,020719,,,*14
$PNAVA,,5.000000,*7F
$GPRMC,103641,A,4228.1285,N,08323.3773,W,48.60,272.00,020719,,,*1A
$PNAVA,,5.000000,*7F
$GPRMC,103642,A,4228.1290,N,08323.3961,W,48.60,272.00,020719,,,*10
$PNAVA,,5.000000,*7F
$GPRMC,103643,A,4228.1294,N,08323.4149,W,48.60,272.00,020719,,,*10
$PNAVA,,5.000000,*7F
$GPRMC,103644,A,4228.1302,N,08323.4320,W,48.60,273.00,020719,,,*15
$PNAVA,,5.000000,*7F
$GPRMC,103645,A,4228.1309,N,08323.4508,W,48.60,273.00,020719,,,*13
$PNAVA,,5.000000,*7F
$GPRMC,103646,A,4228.1317,N,08323.4692,W,48.60,274.00,020719,,,*18
$PNAVA,,5.000000,*7F
$GPRMC,103647,A,4228.1326,N,08323.4863,W,48.60,274.00,020719,,,*1B
$PNAVA,,5.000000,*7F
$GPRMC,103648,A,4228.1374,N,08323.4912,W,21.38,0.00,020719,,,*17
$PNAVA,,5.000000,*7F
$GPRMC,103649,A,4228.1434,N,08323.4912,W,21.38,0.00,020719,,,*15
$PNAVA,,5.000000,*7F
$GPRMC,103650,A,4228.1491,N,08323.4912,W,21.38,0.00,020719,,,*12
$PNAVA,,5.000000,*7F
$GPRMC,103651,A,4228.1551,N,08323.4912,W,21.38,0.00,020719,,,*1E
$PNAVA,,5.000000,*7F
$GPRMC,103652,A,4228.1612,N,08323.4917,W,21.38,356.00,020719,,,*1C
$PNAVA,,5.000000,*7F
$GPRMC,103653,A,4228.1668,N,08323.4922,W,21.38,356.00,020719,,,*16
$PNAVA,,5.000000,*7F
$GPRMC,103654,A,4228.1729,N,08323.4928,W,21.38,356.00,020719,,,*1F
$PNAVA,,5.000000,*7F
$GPRMC,103655,A,4228.1790,N,08323.4933,W,21.38,356.00,020719,,,*16
$PNAVA,,5.000000,*7F
$GPRMC,103656,A,4228.1846,N,08323.4938,W,21.38,356.00,020719,,,*1A
$PNAVA,,5.000000,*7F
$GPRMC,103657,A,4228.1909,N,08323.4943,W,21.38,357.00,020719,,,*1C
$PNAVA,,5.000000,*7F
$GPRMC,103658,A,4228.1965,N,08323.4947,W,21.38,357.00,020719,,,*1D
$PNAVA,,5.000000,*7F
$GPRMC,103659,A,4228.2025,N,08323.4952,W,21.38,357.00,020719,,,*16
$PNAVA,,5.000000,*7F
$GPRMC,103700,A,4228.2052,N,08323.4998,W,19.44,270.00,020719,,,*19
$PNAVA,,5.000000,*7F
$GPRMC,103701,A,4228.2052,N,08323.5067,W,19.44,270.00,020719,,,*10
$PNAVA,,5.000000,*7F
$GPRMC,103702,A,4228.2052,N,08323.5143,W,19.44,269.00,020719,,,*1C
$PNAVA,,5.000000,*7F
$GPRMC,103703,A,4228.2050,N,08323.5219,W,19.44,269.00,020719,,,*13
$PNAVA,,5.000000,*7F
$GPRMC,103704,A,4228.2049,N,08323.5287,W,19.44,269.00,020719,,,*1B
$PNAVA,,5.000000,*7F
$GPRMC,103705,A,4228.2048,N,08323.5363,W,19.44,269.00,020719,,,*10
$PNAVA,,5.000000,*7F
$GPRMC,103706,A,4228.2046,N,08323.5439,W,19.44,269.00,020719,,,*15
$PNAVA,,5.000000,*7F
$GPRMC,103707,A,4228.2045,N,08323.5507,W,19.44,269.00,020719,,,*1B
$PNAVA,,5.000000,*7F
$GPRMC,103708,A,4228.2044,N,08323.5583,W,19.44,269.00,020719,,,*19
$PNAVA,,5.000000,*7F
$GPRMC,103709,A,4228.2043,N,08323.5658,W,19.44,269.00,020719,,,*1A
$PNAVA,,5.000000,*7F
$GPRMC,103710,A,4228.2041,N,08323.5728,W,19.44,269.00,020719,,,*16
$PNAVA,,5.000000,*7F
$GPRMC,103711,A,4228.1997,N,08323.5741,W,19.44,177.00,020719,,,*15
$PNAVA,,5.000000,*7F
$GPRMC,103712,A,4228.1946,N,08323.5736,W,19.44,177.00,020719,,,*1A
$PNAVA,,5.000000,*7F
$GPRMC,103713,A,4228.1891,N,08323.5732,W,19.44,177.00,020719,,,*14
$PNAVA,,5.000000,*7F
$GPRMC,103714,A,4228.1835,N,08323.5728,W,19.44,177.00,020719,,,*16
$PNAVA,,5.000000,*7F
$GPRMC,103715,A,4228.1784,N,08323.5724,W,19.44,177.00,020719,,,*1E
$PNAVA,,5.000000,*7F
$GPRMC,103716,A,4228.1729,N,08323.5720,W,19.44,177.00,020719,,,*1E
$PNAVA,,5.000000,*7F
$GPRMC,103717,A,4228.1674,N,08323.5716,W,19.44,177.00,020719,,,*13
$PNAVA,,5.000000,*7F
$GPRMC,103718,A,4228.1623,N,08323.5712,W,19.44,177.00,020719,,,*1A
$PNAVA,,5.000000,*7F
$GPRMC,103719,A,4228.1567,N,08323.5708,W,19.44,177.00,020719,,,*13
$PNAVA,,5.000000,*7F
$GPRMC,103720,A,4228.1512,N,08323.5703,W,19.44,177.00,020719,,,*10
$PNAVA,,5.000000,*7F
$GPRMC,103721,A,4228.1461,N,08323.5702,W,19.44,180.00,020719,,,*1D
$PNAVA,,5.000000,*7F
$GPRMC,103722,A,4228.1406,N,08323.5702,W,19.44,180.00,020719,,,*1F
$PNAVA,,5.000000,*7F
$GPRMC,103723,A,4228.1362,N,08323.5737,W,48.60,275.00,020719,,,*16
$PNAVA,,5.000000,*7F
$GPRMC,103724,A,4228.1373,N,08323.5908,W,48.60,275.00,020719,,,*13
$PNAVA,,5.000000,*7F
$GPRMC,103725,A,4228.1384,N,08323.6096,W,48.60,275.00,020719,,,*17
$PNAVA,,5.000000,*7F
$GPRMC,103726,A,4228.1394,N,08323.6281,W,48.60,272.00,020719,,,*16
$PNAVA,,5.000000,*7F
$GPRMC,103727,A,4228.1398,N,08323.6452,W,48.60,272.00,020719,,,*13
$PNAVA,,5.000000,*7F
$GPRMC,103728,A,4228.1402,N,08323.6641,W,48.60,272.00,020719,,,*18
$PNAVA,,5.000000,*7F
$GPRMC,103729,A,4228.1414,N,08323.6825,W,48.60,270.00,020719,,,*10
$PNAVA,,5.000000,*7F
$GPRMC,103730,A,4228.1462,N,08323.6830,W,19.44,0.00,020719,,,*1A
$PNAVA,,5.000000,*7F
$GPRMC,103731,A,4228.1519,N,08323.6828,W,19.44,5.00,020719,,,*1A
$PNAVA,,5.000000,*7F
$GPRMC,103732,A,4228.1573,N,08323.6821,W,19.44,5.00,020719,,,*1C
$PNAVA,,5.000000,*7F
$GPRMC,103733,A,4228.1624,N,08323.6815,W,19.44,0.00,020719,,,*1E
$PNAVA,,5.000000,*7F
$GPRMC,103734,A,4228.1681,N,08323.6815,W,19.44,0.00,020719,,,*16
$PNAVA,,5.000000,*7F
$GPRMC,103735,A,4228.1737,N,08323.6815,W,19.44,0.00,020719,,,*1B
$PNAVA,,5.000000,*7F
$GPRMC,103736,A,4228.1786,N,08323.6815,W,19.44,0.00,020719,,,*12
$PNAVA,,5.000000,*7F
$GPRMC,103737,A,4228.1843,N,08323.6815,W,19.44,0.00,020719,,,*15
$PNAVA,,5.000000,*7F
$GPRMC,103738,A,4228.1898,N,08323.6815,W,19.44,0.00,020719,,,*1C
$PNAVA,,5.000000,*7F
$GPRMC,103739,A,4228.1944,N,08323.6834,W,19.44,327.00,020719,,,*18
$PNAVA,,5.000000,*7F
$GPRMC,103740,A,4228.1962,N,08323.6903,W,19.44,280.00,020719,,,*1B
$PNAVA,,5.000000,*7F
$GPRMC,103741,A,4228.1958,N,08323.6977,W,19.44,258.00,020719,,,*15
$PNAVA,,5.000000,*7F
$GPRMC,103742,A,4228.1930,N,08323.7030,W,19.44,224.00,020719,,,*18
$PNAVA,,5.000000,*7F
$GPRMC,103743,A,4228.1878,N,08323.7055,W,19.44,175.00,020719,,,*10
$PNAVA,,5.000000,*7F
$GPRMC,103744,A,4228.1821,N,08323.7049,W,19.44,175.00,020719,,,*16
$PNAVA,,5.000000,*7F
$GPRMC,103745,A,4228.1267,N,08323.3519,W,0.00,276.00,020719,,,*23
$PNAVA,,5.000000,*7F
$GPRMC,103746,A,4228.1267,N,08323.3519,W,0.00,276.00,020719,,,*20
$PNAVA,,5.000000,*7F
$GPRMC,103747,A,4228.1267,N,08323.3519,W,0.00,276.00,020719,,,*21
