$GPGGA,094821.265,4228.263,N,08324.036,W,1,12,1.0,0.0,M,0.0,M,,*78
$GPGSA,A,3,01,02,03,04,05,06,07,08,09,10,11,12,1.0,1.0,1.0*30
$GPRMC,094821.265,A,4228.263,N,08324.036,W,038.9,177.4,020719,000.0,W*66
$GPGGA,094822.265,4228.252,N,08324.035,W,1,12,1.0,0.0,M,0.0,M,,*7A
$GPGSA,A,3,01,02,03,04,05,06,07,08,09,10,11,12,1.0,1.0,1.0*30
$GPRMC,094822.265,A,4228.252,N,08324.035,W,038.9,177.4,020719,000.0,W*64
$GPGGA,094823.265,4228.241,N,08324.035,W,1,12,1.0,0.0,M,0.0,M,,*79
$GPGSA,A,3,01,02,03,04,05,06,07,08,09,10,11,12,1.0,1.0,1.0*30
$GPRMC,094823.265,A,4228.241,N,08324.035,W,038.9,177.4,020719,000.0,W*67
$GPGGA,094824.265,4228.231,N,08324.034,W,1,12,1.0,0.0,M,0.0,M,,*78
$GPGSA,A,3,01,02,03,04,05,06,07,08,09,10,11,12,1.0,1.0,1.0*30
$GPRMC,094824.265,A,4228.231,N,08324.034,W,038.9,177.4,020719,000.0,W*66
$GPGGA,094825.265,4228.220,N,08324.034,W,1,12,1.0,0.0,M,0.0,M,,*79
$GPGSA,A,3,01,02,03,04,05,06,07,08,09,10,11,12,1.0,1.0,1.0*30
$GPRMC,094825.265,A,4228.220,N,08324.034,W,038.9,177.4,020719,000.0,W*67
$GPGGA,094826.265,4228.209,N,08324.033,W,1,12,1.0,0.0,M,0.0,M,,*76
$GPGSA,A,3,01,02,03,04,05,06,07,08,09,10,11,12,1.0,1.0,1.0*30
$GPRMC,094826.265,A,4228.209,N,08324.033,W,038.9,217.3,020719,000.0,W*6A
$GPGGA,094827.265,4228.200,N,08324.041,W,1,12,1.0,0.0,M,0.0,M,,*7B
$GPGSA,A,3,01,02,03,04,05,06,07,08,09,10,11,12,1.0,1.0,1.0*30
$GPRMC,094827.265,A,4228.200,N,08324.041,W,038.9,217.3,020719,000.0,W*67
$GPGGA,094828.265,4228.190,N,08324.048,W,1,12,1.0,0.0,M,0.0,M,,*77
$GPGSA,A,3,01,02,03,04,05,06,07,08,09,10,11,12,1.0,1.0,1.0*30
$GPRMC,094828.265,A,4228.190,N,08324.048,W,038.9,194.8,020719,000.0,W*68
$GPGGA,094829.265,4228.180,N,08324.051,W,1,12,1.0,0.0,M,0.0,M,,*7F
$GPGSA,A,3,01,02,03,04,05,06,07,08,09,10,11,12,1.0,1.0,1.0*30
$GPRMC,094829.265,A,4228.180,N,08324.051,W,038.9,194.8,020719,000.0,W*60
$GPGGA,094830.265,4228.169,N,08324.053,W,1,12,1.0,0.0,M,0.0,M,,*72
$GPGSA,A,3,01,02,03,04,05,06,07,08,09,10,11,12,1.0,1.0,1.0*30
$GPRMC,094830.265,A,4228.169,N,08324.053,W,038.9,268.5,020719,000.0,W*60
$GPGGA,094831.265,4228.169,N,08324.068,W,1,12,1.0,0.0,M,0.0,M,,*7B
$GPGSA,A,3,01,02,03,04,05,06,07,08,09,10,11,12,1.0,1.0,1.0*30
$GPRMC,094831.265,A,4228.169,N,08324.068,W,038.9,268.5,020719,000.0,W*69
$GPGGA,094832.265,4228.168,N,08324.083,W,1,12,1.0,0.0,M,0.0,M,,*7C
$GPGSA,A,3,01,02,03,04,05,06,07,08,09,10,11,12,1.0,1.0,1.0*30
$GPRMC,094832.265,A,4228.168,N,08324.083,W,038.9,022.6,020719,000.0,W*61
$GPGGA,094833.265,4228.179,N,08324.078,W,1,12,1.0,0.0,M,0.0,M,,*79
$GPGSA,A,3,01,02,03,04,05,06,07,08,09,10,11,12,1.0,1.0,1.0*30
$GPRMC,094833.265,A,4228.179,N,08324.078,W,038.9,022.6,020719,000.0,W*64
$GPGGA,094834.265,4228.189,N,08324.074,W,1,12,1.0,0.0,M,0.0,M,,*7D
$GPGSA,A,3,01,02,03,04,05,06,07,08,09,10,11,12,1.0,1.0,1.0*30
$GPRMC,094834.265,A,4228.189,N,08324.074,W,038.9,022.6,020719,000.0,W*60
$GPGGA,094835.265,4228.199,N,08324.070,W,1,12,1.0,0.0,M,0.0,M,,*79
$GPGSA,A,3,01,02,03,04,05,06,07,08,09,10,11,12,1.0,1.0,1.0*30
$GPRMC,094835.265,A,4228.199,N,08324.070,W,038.9,022.6,020719,000.0,W*64
$GPGGA,094836.265,4228.210,N,08324.065,W,1,12,1.0,0.0,M,0.0,M,,*7C
$GPGSA,A,3,01,02,03,04,05,06,07,08,09,10,11,12,1.0,1.0,1.0*30
$GPRMC,094836.265,A,4228.210,N,08324.065,W,038.9,205.8,020719,000.0,W*68
$GPGGA,094837.265,4228.199,N,08324.070,W,1,12,1.0,0.0,M,0.0,M,,*7B
$GPGSA,A,3,01,02,03,04,05,06,07,08,09,10,11,12,1.0,1.0,1.0*30
$GPRMC,094837.265,A,4228.199,N,08324.070,W,038.9,106.1,020719,000.0,W*66
$GPGGA,094838.265,4228.196,N,08324.057,W,1,12,1.0,0.0,M,0.0,M,,*7E
$GPGSA,A,3,01,02,03,04,05,06,07,08,09,10,11,12,1.0,1.0,1.0*30
$GPRMC,094838.265,A,4228.196,N,08324.057,W,038.9,106.1,020719,000.0,W*63
$GPGGA,094839.265,4228.192,N,08324.043,W,1,12,1.0,0.0,M,0.0,M,,*7E
$GPGSA,A,3,01,02,03,04,05,06,07,08,09,10,11,12,1.0,1.0,1.0*30
$GPRMC,094839.265,A,4228.192,N,08324.043,W,038.9,019.9,020719,000.0,W*64
$GPGGA,094840.265,4228.202,N,08324.039,W,1,12,1.0,0.0,M,0.0,M,,*77
$GPGSA,A,3,01,02,03,04,05,06,07,08,09,10,11,12,1.0,1.0,1.0*30
$GPRMC,094840.265,A,4228.202,N,08324.039,W,038.9,019.9,020719,000.0,W*6D
$GPGGA,094841.265,4228.212,N,08324.036,W,1,12,1.0,0.0,M,0.0,M,,*78
$GPGSA,A,3,01,02,03,04,05,06,07,08,09,10,11,12,1.0,1.0,1.0*30
$GPRMC,094841.265,A,4228.212,N,08324.036,W,038.9,019.9,020719,000.0,W*62
$GPGGA,094842.265,4228.223,N,08324.032,W,1,12,1.0,0.0,M,0.0,M,,*7D
$GPGSA,A,3,01,02,03,04,05,06,07,08,09,10,11,12,1.0,1.0,1.0*30
$GPRMC,094842.265,A,4228.223,N,08324.032,W,038.9,358.1,020719,000.0,W*69
$GPGGA,094843.265,4228.234,N,08324.032,W,1,12,1.0,0.0,M,0.0,M,,*7A
$GPGSA,A,3,01,02,03,04,05,06,07,08,09,10,11,12,1.0,1.0,1.0*30
$GPRMC,094843.265,A,4228.234,N,08324.032,W,038.9,358.1,020719,000.0,W*6E
$GPGGA,094844.265,4228.244,N,08324.032,W,1,12,1.0,0.0,M,0.0,M,,*7A
$GPGSA,A,3,01,02,03,04,05,06,07,08,09,10,11,12,1.0,1.0,1.0*30
$GPRMC,094844.265,A,4228.244,N,08324.032,W,038.9,358.1,020719,000.0,W*6E
$GPGGA,094845.265,4228.255,N,08324.033,W,1,12,1.0,0.0,M,0.0,M,,*7A
$GPGSA,A,3,01,02,03,04,05,06,07,08,09,10,11,12,1.0,1.0,1.0*30
$GPRMC,094845.265,A,4228.255,N,08324.033,W,038.9,358.1,020719,000.0,W*6E
$GPGGA,094846.265,4228.266,N,08324.033,W,1,12,1.0,0.0,M,0.0,M,,*79
$GPGSA,A,3,01,02,03,04,05,06,07,08,09,10,11,12,1.0,1.0,1.0*30
$GPRMC,094846.265,A,4228.266,N,08324.033,W,038.9,300.1,020719,000.0,W*60
$GPGGA,094847.265,4228.273,N,08324.045,W,1,12,1.0,0.0,M,0.0,M,,*7D
$GPGSA,A,3,01,02,03,04,05,06,07,08,09,10,11,12,1.0,1.0,1.0*30
$GPRMC,094847.265,A,4228.273,N,08324.045,W,038.9,300.1,020719,000.0,W*64
$GPGGA,094848.265,4228.279,N,08324.056,W,1,12,1.0,0.0,M,0.0,M,,*7A
$GPGSA,A,3,01,02,03,04,05,06,07,08,09,10,11,12,1.0,1.0,1.0*30
$GPRMC,094848.265,A,4228.279,N,08324.056,W,038.9,300.1,020719,000.0,W*63
$GPGGA,094849.265,4228.286,N,08324.068,W,1,12,1.0,0.0,M,0.0,M,,*76
$GPGSA,A,3,01,02,03,04,05,06,07,08,09,10,11,12,1.0,1.0,1.0*30
$GPRMC,094849.265,A,4228.286,N,08324.068,W,038.9,300.1,020719,000.0,W*6F
$GPGGA,094850.265,4228.293,N,08324.079,W,1,12,1.0,0.0,M,0.0,M,,*7A
$GPGSA,A,3,01,02,03,04,05,06,07,08,09,10,11,12,1.0,1.0,1.0*30
$GPRMC,094850.265,A,4228.293,N,08324.079,W,038.9,300.1,020719,000.0,W*63
$GPGGA,094851.265,4228.299,N,08324.091,W,1,12,1.0,0.0,M,0.0,M,,*77
$GPGSA,A,3,01,02,03,04,05,06,07,08,09,10,11,12,1.0,1.0,1.0*30
$GPRMC,094851.265,A,4228.299,N,08324.091,W,038.9,300.1,020719,000.0,W*6E
$GPGGA,094852.265,4228.306,N,08324.102,W,1,12,1.0,0.0,M,0.0,M,,*78
$GPGSA,A,3,01,02,03,04,05,06,07,08,09,10,11,12,1.0,1.0,1.0*30
$GPRMC,094852.265,A,4228.306,N,08324.102,W,038.9,300.1,020719,000.0,W*61
$GPGGA,094853.265,4228.313,N,08324.114,W,1,12,1.0,0.0,M,0.0,M,,*7A
$GPGSA,A,3,01,02,03,04,05,06,07,08,09,10,11,12,1.0,1.0,1.0*30
$GPRMC,094853.265,A,4228.313,N,08324.114,W,038.9,223.3,020719,000.0,W*61
$GPGGA,094854.265,4228.304,N,08324.122,W,1,12,1.0,0.0,M,0.0,M,,*7E
$GPGSA,A,3,01,02,03,04,05,06,07,08,09,10,11,12,1.0,1.0,1.0*30
$GPRMC,094854.265,A,4228.304,N,08324.122,W,038.9,223.3,020719,000.0,W*65
$GPGGA,094855.265,4228.295,N,08324.131,W,1,12,1.0,0.0,M,0.0,M,,*74
$GPGSA,A,3,01,02,03,04,05,06,07,08,09,10,11,12,1.0,1.0,1.0*30
$GPRMC,094855.265,A,4228.295,N,08324.131,W,038.9,223.3,020719,000.0,W*6F
$GPGGA,094856.265,4228.286,N,08324.139,W,1,12,1.0,0.0,M,0.0,M,,*7D
$GPGSA,A,3,01,02,03,04,05,06,07,08,09,10,11,12,1.0,1.0,1.0*30
$GPRMC,094856.265,A,4228.286,N,08324.139,W,038.9,223.3,020719,000.0,W*66
$GPGGA,094857.265,4228.277,N,08324.147,W,1,12,1.0,0.0,M,0.0,M,,*7B
$GPGSA,A,3,01,02,03,04,05,06,07,08,09,10,11,12,1.0,1.0,1.0*30
$GPRMC,094857.265,A,4228.277,N,08324.147,W,038.9,198.2,020719,000.0,W*62
$GPGGA,094858.265,4228.267,N,08324.151,W,1,12,1.0,0.0,M,0.0,M,,*72
$GPGSA,A,3,01,02,03,04,05,06,07,08,09,10,11,12,1.0,1.0,1.0*30
$GPRMC,094858.265,A,4228.267,N,08324.151,W,038.9,198.2,020719,000.0,W*6B
$GPGGA,094859.265,4228.256,N,08324.154,W,1,12,1.0,0.0,M,0.0,M,,*74
$GPGSA,A,3,01,02,03,04,05,06,07,08,09,10,11,12,1.0,1.0,1.0*30
$GPRMC,094859.265,A,4228.256,N,08324.154,W,038.9,198.2,020719,000.0,W*6D
$GPGGA,094900.265,4228.246,N,08324.158,W,1,12,1.0,0.0,M,0.0,M,,*74
$GPGSA,A,3,01,02,03,04,05,06,07,08,09,10,11,12,1.0,1.0,1.0*30
$GPRMC,094900.265,A,4228.246,N,08324.158,W,038.9,198.2,020719,000.0,W*6D
$GPGGA,094901.265,4228.235,N,08324.161,W,1,12,1.0,0.0,M,0.0,M,,*7B
$GPGSA,A,3,01,02,03,04,05,06,07,08,09,10,11,12,1.0,1.0,1.0*30
$GPRMC,094901.265,A,4228.235,N,08324.161,W,038.9,198.2,020719,000.0,W*62
$GPGGA,094902.265,4228.225,N,08324.164,W,1,12,1.0,0.0,M,0.0,M,,*7C
$GPGSA,A,3,01,02,03,04,05,06,07,08,09,10,11,12,1.0,1.0,1.0*30
$GPRMC,094902.265,A,4228.225,N,08324.164,W,038.9,218.2,020719,000.0,W*6E
$GPGGA,094903.265,4228.215,N,08324.172,W,1,12,1.0,0.0,M,0.0,M,,*79
$GPGSA,A,3,01,02,03,04,05,06,07,08,09,10,11,12,1.0,1.0,1.0*30
$GPRMC,094903.265,A,4228.215,N,08324.172,W,038.9,218.2,020719,000.0,W*6B
$GPGGA,094904.265,4228.206,N,08324.179,W,1,12,1.0,0.0,M,0.0,M,,*77
$GPGSA,A,3,01,02,03,04,05,06,07,08,09,10,11,12,1.0,1.0,1.0*30
$GPRMC,094904.265,A,4228.206,N,08324.179,W,038.9,218.2,020719,000.0,W*65
$GPGGA,094905.265,4228.197,N,08324.187,W,1,12,1.0,0.0,M,0.0,M,,*7C
$GPGSA,A,3,01,02,03,04,05,06,07,08,09,10,11,12,1.0,1.0,1.0*30
$GPRMC,094905.265,A,4228.197,N,08324.187,W,038.9,218.2,020719,000.0,W*6E
$GPGGA,094906.265,4228.187,N,08324.194,W,1,12,1.0,0.0,M,0.0,M,,*7C
$GPGSA,A,3,01,02,03,04,05,06,07,08,09,10,11,12,1.0,1.0,1.0*30
$GPRMC,094906.265,A,4228.187,N,08324.194,W,038.9,174.4,020719,000.0,W*61
$GPGGA,094907.265,4228.177,N,08324.193,W,1,12,1.0,0.0,M,0.0,M,,*75
$GPGSA,A,3,01,02,03,04,05,06,07,08,09,10,11,12,1.0,1.0,1.0*30
$GPRMC,094907.265,A,4228.177,N,08324.193,W,038.9,174.4,020719,000.0,W*68
$GPGGA,094908.265,4228.166,N,08324.192,W,1,12,1.0,0.0,M,0.0,M,,*7B
$GPGSA,A,3,01,02,03,04,05,06,07,08,09,10,11,12,1.0,1.0,1.0*30
$GPRMC,094908.265,A,4228.166,N,08324.192,W,038.9,174.4,020719,000.0,W*66
$GPGGA,094909.265,4228.155,N,08324.191,W,1,12,1.0,0.0,M,0.0,M,,*79
$GPGSA,A,3,01,02,03,04,05,06,07,08,09,10,11,12,1.0,1.0,1.0*30
$GPRMC,094909.265,A,4228.155,N,08324.191,W,038.9,174.4,020719,000.0,W*64
$GPGGA,094910.265,4228.144,N,08324.190,W,1,12,1.0,0.0,M,0.0,M,,*70
$GPGSA,A,3,01,02,03,04,05,06,07,08,09,10,11,12,1.0,1.0,1.0*30
$GPRMC,094910.265,A,4228.144,N,08324.190,W,038.9,264.2,020719,000.0,W*69
$GPGGA,094911.265,4228.143,N,08324.204,W,1,12,1.0,0.0,M,0.0,M,,*78
$GPGSA,A,3,01,02,03,04,05,06,07,08,09,10,11,12,1.0,1.0,1.0*30
$GPRMC,094911.265,A,4228.143,N,08324.204,W,038.9,264.2,020719,000.0,W*61
$GPGGA,094912.265,4228.141,N,08324.219,W,1,12,1.0,0.0,M,0.0,M,,*75
$GPGSA,A,3,01,02,03,04,05,06,07,08,09,10,11,12,1.0,1.0,1.0*30
$GPRMC,094912.265,A,4228.141,N,08324.219,W,038.9,264.2,020719,000.0,W*6C
$GPGGA,094913.265,4228.140,N,08324.233,W,1,12,1.0,0.0,M,0.0,M,,*7D
$GPGSA,A,3,01,02,03,04,05,06,07,08,09,10,11,12,1.0,1.0,1.0*30
$GPRMC,094913.265,A,4228.140,N,08324.233,W,038.9,264.2,020719,000.0,W*64
$GPGGA,094914.265,4228.138,N,08324.248,W,1,12,1.0,0.0,M,0.0,M,,*79
$GPGSA,A,3,01,02,03,04,05,06,07,08,09,10,11,12,1.0,1.0,1.0*30
$GPRMC,094914.265,A,4228.138,N,08324.248,W,038.9,268.7,020719,000.0,W*69
$GPGGA,094915.265,4228.138,N,08324.262,W,1,12,1.0,0.0,M,0.0,M,,*70
$GPGSA,A,3,01,02,03,04,05,06,07,08,09,10,11,12,1.0,1.0,1.0*30
$GPRMC,094915.265,A,4228.138,N,08324.262,W,038.9,268.7,020719,000.0,W*60
$GPGGA,094916.265,4228.138,N,08324.277,W,1,12,1.0,0.0,M,0.0,M,,*77
$GPGSA,A,3,01,02,03,04,05,06,07,08,09,10,11,12,1.0,1.0,1.0*30
$GPRMC,094916.265,A,4228.138,N,08324.277,W,038.9,268.7,020719,000.0,W*67
$GPGGA,094917.265,4228.137,N,08324.292,W,1,12,1.0,0.0,M,0.0,M,,*72
$GPGSA,A,3,01,02,03,04,05,06,07,08,09,10,11,12,1.0,1.0,1.0*30
$GPRMC,094917.265,A,4228.137,N,08324.292,W,038.9,268.7,020719,000.0,W*62
$GPGGA,094918.265,4228.137,N,08324.306,W,1,12,1.0,0.0,M,0.0,M,,*71
$GPGSA,A,3,01,02,03,04,05,06,07,08,09,10,11,12,1.0,1.0,1.0*30
$GPRMC,094918.265,A,4228.137,N,08324.306,W,038.9,268.7,020719,000.0,W*61
$GPGGA,094919.265,4228.137,N,08324.321,W,1,12,1.0,0.0,M,0.0,M,,*75
$GPGSA,A,3,01,02,03,04,05,06,07,08,09,10,11,12,1.0,1.0,1.0*30
$GPRMC,094919.265,A,4228.137,N,08324.321,W,038.9,268.7,020719,000.0,W*65
$GPGGA,094920.265,4228.136,N,08324.335,W,1,12,1.0,0.0,M,0.0,M,,*7B
$GPGSA,A,3,01,02,03,04,05,06,07,08,09,10,11,12,1.0,1.0,1.0*30
$GPRMC,094920.265,A,4228.136,N,08324.335,W,038.9,268.7,020719,000.0,W*6B
$GPGGA,094921.265,4228.136,N,08324.350,W,1,12,1.0,0.0,M,0.0,M,,*79
$GPGSA,A,3,01,02,03,04,05,06,07,08,09,10,11,12,1.0,1.0,1.0*30
$GPRMC,094921.265,A,4228.136,N,08324.350,W,038.9,268.7,020719,000.0,W*69
$GPGGA,094922.265,4228.136,N,08324.365,W,1,12,1.0,0.0,M,0.0,M,,*7C
$GPGSA,A,3,01,02,03,04,05,06,07,08,09,10,11,12,1.0,1.0,1.0*30
$GPRMC,094922.265,A,4228.136,N,08324.365,W,038.9,268.5,020719,000.0,W*6E
$GPGGA,094923.265,4228.135,N,08324.379,W,1,12,1.0,0.0,M,0.0,M,,*73
$GPGSA,A,3,01,02,03,04,05,06,07,08,09,10,11,12,1.0,1.0,1.0*30
$GPRMC,094923.265,A,4228.135,N,08324.379,W,038.9,268.5,020719,000.0,W*61
$GPGGA,094924.265,4228.135,N,08324.394,W,1,12,1.0,0.0,M,0.0,M,,*77
$GPGSA,A,3,01,02,03,04,05,06,07,08,09,10,11,12,1.0,1.0,1.0*30
$GPRMC,094924.265,A,4228.135,N,08324.394,W,038.9,268.5,020719,000.0,W*65
$GPGGA,094925.265,4228.135,N,08324.409,W,1,12,1.0,0.0,M,0.0,M,,*75
$GPGSA,A,3,01,02,03,04,05,06,07,08,09,10,11,12,1.0,1.0,1.0*30
$GPRMC,094925.265,A,4228.135,N,08324.409,W,038.9,268.5,020719,000.0,W*67
$GPGGA,094926.265,4228.134,N,08324.423,W,1,12,1.0,0.0,M,0.0,M,,*7F
$GPGSA,A,3,01,02,03,04,05,06,07,08,09,10,11,12,1.0,1.0,1.0*30
$GPRMC,094926.265,A,4228.134,N,08324.423,W,038.9,268.5,020719,000.0,W*6D
$GPGGA,094927.265,4228.134,N,08324.438,W,1,12,1.0,0.0,M,0.0,M,,*74
$GPGSA,A,3,01,02,03,04,05,06,07,08,09,10,11,12,1.0,1.0,1.0*30
$GPRMC,094927.265,A,4228.134,N,08324.438,W,038.9,268.5,020719,000.0,W*66
$GPGGA,094928.265,4228.134,N,08324.452,W,1,12,1.0,0.0,M,0.0,M,,*77
$GPGSA,A,3,01,02,03,04,05,06,07,08,09,10,11,12,1.0,1.0,1.0*30
$GPRMC,094928.265,A,4228.134,N,08324.452,W,038.9,268.5,020719,000.0,W*65
$GPGGA,094929.265,4228.133,N,08324.467,W,1,12,1.0,0.0,M,0.0,M,,*77
$GPGSA,A,3,01,02,03,04,05,06,07,08,09,10,11,12,1.0,1.0,1.0*30
$GPRMC,094929.265,A,4228.133,N,08324.467,W,038.9,267.3,020719,000.0,W*6C
$GPGGA,094930.265,4228.132,N,08324.482,W,1,12,1.0,0.0,M,0.0,M,,*75
$GPGSA,A,3,01,02,03,04,05,06,07,08,09,10,11,12,1.0,1.0,1.0*30
$GPRMC,094930.265,A,4228.132,N,08324.482,W,038.9,267.3,020719,000.0,W*6E
$GPGGA,094931.265,4228.132,N,08324.496,W,1,12,1.0,0.0,M,0.0,M,,*71
$GPGSA,A,3,01,02,03,04,05,06,07,08,09,10,11,12,1.0,1.0,1.0*30
$GPRMC,094931.265,A,4228.132,N,08324.496,W,038.9,267.3,020719,000.0,W*6A
$GPGGA,094932.265,4228.131,N,08324.511,W,1,12,1.0,0.0,M,0.0,M,,*7F
$GPGSA,A,3,01,02,03,04,05,06,07,08,09,10,11,12,1.0,1.0,1.0*30
$GPRMC,094932.265,A,4228.131,N,08324.511,W,038.9,267.3,020719,000.0,W*64
$GPGGA,094933.265,4228.130,N,08324.525,W,1,12,1.0,0.0,M,0.0,M,,*78
$GPGSA,A,3,01,02,03,04,05,06,07,08,09,10,11,12,1.0,1.0,1.0*30
$GPRMC,094933.265,A,4228.130,N,08324.525,W,038.9,267.3,020719,000.0,W*63
$GPGGA,094934.265,4228.130,N,08324.540,W,1,12,1.0,0.0,M,0.0,M,,*7C
$GPGSA,A,3,01,02,03,04,05,06,07,08,09,10,11,12,1.0,1.0,1.0*30
$GPRMC,094934.265,A,4228.130,N,08324.540,W,038.9,267.3,020719,000.0,W*67
$GPGGA,094935.265,4228.129,N,08324.555,W,1,12,1.0,0.0,M,0.0,M,,*71
$GPGSA,A,3,01,02,03,04,05,06,07,08,09,10,11,12,1.0,1.0,1.0*30
$GPRMC,094935.265,A,4228.129,N,08324.555,W,038.9,267.3,020719,000.0,W*6A
$GPGGA,094936.265,4228.128,N,08324.569,W,1,12,1.0,0.0,M,0.0,M,,*7C
$GPGSA,A,3,01,02,03,04,05,06,07,08,09,10,11,12,1.0,1.0,1.0*30
$GPRMC,094936.265,A,4228.128,N,08324.569,W,038.9,267.3,020719,000.0,W*67
$GPGGA,094937.265,4228.128,N,08324.584,W,1,12,1.0,0.0,M,0.0,M,,*7E
$GPGSA,A,3,01,02,03,04,05,06,07,08,09,10,11,12,1.0,1.0,1.0*30
$GPRMC,094937.265,A,4228.128,N,08324.584,W,038.9,267.3,020719,000.0,W*65
$GPGGA,094938.265,4228.127,N,08324.598,W,1,12,1.0,0.0,M,0.0,M,,*73
$GPGSA,A,3,01,02,03,04,05,06,07,08,09,10,11,12,1.0,1.0,1.0*30
$GPRMC,094938.265,A,4228.127,N,08324.598,W,038.9,267.3,020719,000.0,W*68
$GPGGA,094939.265,4228.126,N,08324.613,W,1,12,1.0,0.0,M,0.0,M,,*73
$GPGSA,A,3,01,02,03,04,05,06,07,08,09,10,11,12,1.0,1.0,1.0*30
$GPRMC,094939.265,A,4228.126,N,08324.613,W,038.9,267.3,020719,000.0,W*68
$GPGGA,094940.265,4228.126,N,08324.628,W,1,12,1.0,0.0,M,0.0,M,,*75
$GPGSA,A,3,01,02,03,04,05,06,07,08,09,10,11,12,1.0,1.0,1.0*30
$GPRMC,094940.265,A,4228.126,N,08324.628,W,038.9,271.3,020719,000.0,W*69
$GPGGA,094941.265,4228.126,N,08324.642,W,1,12,1.0,0.0,M,0.0,M,,*78
$GPGSA,A,3,01,02,03,04,05,06,07,08,09,10,11,12,1.0,1.0,1.0*30
$GPRMC,094941.265,A,4228.126,N,08324.642,W,038.9,271.3,020719,000.0,W*64
$GPGGA,094942.265,4228.126,N,08324.657,W,1,12,1.0,0.0,M,0.0,M,,*7F
$GPGSA,A,3,01,02,03,04,05,06,07,08,09,10,11,12,1.0,1.0,1.0*30
$GPRMC,094942.265,A,4228.126,N,08324.657,W,038.9,271.3,020719,000.0,W*63
$GPGGA,094943.265,4228.127,N,08324.671,W,1,12,1.0,0.0,M,0.0,M,,*7B
$GPGSA,A,3,01,02,03,04,05,06,07,08,09,10,11,12,1.0,1.0,1.0*30
$GPRMC,094943.265,A,4228.127,N,08324.671,W,038.9,271.3,020719,000.0,W*67
$GPGGA,094944.265,4228.127,N,08324.686,W,1,12,1.0,0.0,M,0.0,M,,*74
$GPGSA,A,3,01,02,03,04,05,06,07,08,09,10,11,12,1.0,1.0,1.0*30
$GPRMC,094944.265,A,4228.127,N,08324.686,W,038.9,271.3,020719,000.0,W*68
