$PNAVA,,5.000000,*7F
$GPRMC,091403,A,3406.2335,N,11748.1651,W,0.00,0.00,310119,,,*29
$PNAVA,,5.000000,*7F
$GPRMC,091404,A,3406.2336,N,11748.1651,W,21.38,0.00,310119,,,*15
$PNAVA,,5.000000,*7F
$GPRMC,091405,A,3406.2397,N,11748.1651,W,21.38,0.00,310119,,,*1F
$PNAVA,,5.000000,*7F
$GPRMC,091406,A,3406.2458,N,11748.1651,W,21.38,0.00,310119,,,*18
$PNAVA,,5.000000,*7F
$GPRMC,091407,A,3406.2514,N,11748.1651,W,21.38,0.00,310119,,,*10
$PNAVA,,5.000000,*7F
$GPRMC,091408,A,3406.2575,N,11748.1651,W,21.38,0.00,310119,,,*18
$PNAVA,,5.000000,*7F
$GPRMC,091409,A,3406.2636,N,11748.1651,W,21.38,0.00,310119,,,*1D
$PNAVA,,5.000000,*7F
$GPRMC,091410,A,3406.2692,N,11748.1651,W,21.38,0.00,310119,,,*1B
$PNAVA,,5.000000,*7F
$GPRMC,091411,A,3406.2723,N,11748.1651,W,21.38,0.00,310119,,,*11
$PNAVA,,5.000000,*7F
$GPRMC,091412,A,3406.2723,N,11748.1651,W,21.38,0.00,310119,,,*12
$PNAVA,,5.000000,*7F
$GPRMC,091413,A,3406.2723,N,11748.1651,W,21.38,0.00,310119,,,*13
$PNAVA,,5.000000,*7F
$GPRMC,091414,A,3406.2723,N,11748.1651,W,21.38,0.00,310119,,,*14
$PNAVA,,5.000000,*7F
$GPRMC,091415,A,3406.2723,N,11748.1651,W,21.38,0.00,310119,,,*15
$PNAVA,,5.000000,*7F
$GPRMC,091416,A,3406.2723,N,11748.1651,W,21.38,0.00,310119,,,*16
$PNAVA,,5.000000,*7F
$GPRMC,091417,A,3406.2723,N,11748.1651,W,21.38,0.00,310119,,,*17
$PNAVA,,5.000000,*7F
$GPRMC,091418,A,3406.2723,N,11748.1651,W,21.38,0.00,310119,,,*18
$PNAVA,,5.000000,*7F
$GPRMC,091419,A,3406.2723,N,11748.1651,W,21.38,0.00,310119,,,*19
$PNAVA,,5.000000,*7F
$GPRMC,091420,A,3406.2723,N,11748.1651,W,21.38,0.00,310119,,,*13
$PNAVA,,5.000000,*7F
$GPRMC,091421,A,3406.2723,N,11748.1651,W,21.38,0.00,310119,,,*12
$PNAVA,,5.000000,*7F
$GPRMC,091422,A,3406.2723,N,11748.1651,W,21.38,0.00,310119,,,*11
$PNAVA,,5.000000,*7F
$GPRMC,091423,A,3406.2723,N,11748.1651,W,21.38,0.00,310119,,,*10
$PNAVA,,5.000000,*7F
$GPRMC,091424,A,3406.2723,N,11748.1651,W,21.38,0.00,310119,,,*17
$PNAVA,,5.000000,*7F
$GPRMC,091425,A,3406.2723,N,11748.1651,W,21.38,0.00,310119,,,*16
$PNAVA,,5.000000,*7F
$GPRMC,091426,A,3406.2723,N,11748.1651,W,21.38,0.00,310119,,,*15
$PNAVA,,5.000000,*7F
$GPRMC,091427,A,3406.2723,N,11748.1651,W,21.38,0.00,310119,,,*14
$PNAVA,,5.000000,*7F
$GPRMC,091428,A,3406.2723,N,11748.1651,W,21.38,0.00,310119,,,*1B
$PNAVA,,5.000000,*7F
$GPRMC,091429,A,3406.2723,N,11748.1651,W,21.38,0.00,310119,,,*1A
$PNAVA,,5.000000,*7F
$GPRMC,091430,A,3406.2723,N,11748.1651,W,21.38,0.00,310119,,,*12
$PNAVA,,5.000000,*7F
$GPRMC,091431,A,3406.2723,N,11748.1651,W,21.38,0.00,310119,,,*13
$PNAVA,,5.000000,*7F
$GPRMC,091432,A,3406.2723,N,11748.1651,W,21.38,0.00,310119,,,*10
$PNAVA,,5.000000,*7F
$GPRMC,091433,A,3406.2723,N,11748.1651,W,21.38,0.00,310119,,,*11
$PNAVA,,5.000000,*7F
$GPRMC,091434,A,3406.2723,N,11748.1651,W,21.38,0.00,310119,,,*16
$PNAVA,,5.000000,*7F
$GPRMC,091435,A,3406.2723,N,11748.1651,W,21.38,0.00,310119,,,*17
$PNAVA,,5.000000,*7F
$GPRMC,091436,A,3406.2723,N,11748.1651,W,21.38,0.00,310119,,,*14
$PNAVA,,5.000000,*7F
$GPRMC,091437,A,3406.2723,N,11748.1651,W,21.38,0.00,310119,,,*15
$PNAVA,,5.000000,*7F
$GPRMC,091438,A,3406.2723,N,11748.1651,W,21.38,0.00,310119,,,*1A
$PNAVA,,5.000000,*7F
$GPRMC,091439,A,3406.2723,N,11748.1651,W,21.38,0.00,310119,,,*1B
$PNAVA,,5.000000,*7F
$GPRMC,091440,A,3406.2723,N,11748.1651,W,21.38,0.00,310119,,,*15
$PNAVA,,5.000000,*7F
$GPRMC,091441,A,3406.2723,N,11748.1651,W,21.38,0.00,310119,,,*14
$PNAVA,,5.000000,*7F
$GPRMC,091442,A,3406.2723,N,11748.1651,W,21.38,0.00,310119,,,*17
$PNAVA,,5.000000,*7F
$GPRMC,091443,A,3406.2723,N,11748.1651,W,21.38,0.00,310119,,,*16
$PNAVA,,5.000000,*7F
$GPRMC,091444,A,3406.2723,N,11748.1651,W,21.38,0.00,310119,,,*11
$PNAVA,,5.000000,*7F
$GPRMC,091445,A,3406.2723,N,11748.1651,W,21.38,0.00,310119,,,*10
$PNAVA,,5.000000,*7F
$GPRMC,091446,A,3406.2723,N,11748.1651,W,21.38,0.00,310119,,,*13
$PNAVA,,5.000000,*7F
$GPRMC,091447,A,3406.2723,N,11748.1651,W,21.38,0.00,310119,,,*12
$PNAVA,,5.000000,*7F
$GPRMC,091448,A,3406.2723,N,11748.1651,W,21.38,0.00,310119,,,*1D
$PNAVA,,5.000000,*7F
$GPRMC,091449,A,3406.2723,N,11748.1651,W,21.38,0.00,310119,,,*1C
$PNAVA,,5.000000,*7F
$GPRMC,091450,A,3406.2723,N,11748.1651,W,21.38,0.00,310119,,,*14
$PNAVA,,5.000000,*7F
$GPRMC,091451,A,3406.2723,N,11748.1651,W,21.38,0.00,310119,,,*15
$PNAVA,,5.000000,*7F
$GPRMC,091452,A,3406.2723,N,11748.1651,W,21.38,0.00,310119,,,*16
$PNAVA,,5.000000,*7F
$GPRMC,091453,A,3406.2723,N,11748.1651,W,21.38,0.00,310119,,,*17
$PNAVA,,5.000000,*7F
$GPRMC,091454,A,3406.2723,N,11748.1651,W,21.38,0.00,310119,,,*10
$PNAVA,,5.000000,*7F
$GPRMC,091455,A,3406.2723,N,11748.1651,W,21.38,0.00,310119,,,*11
$PNAVA,,5.000000,*7F
$GPRMC,091456,A,3406.2723,N,11748.1651,W,21.38,0.00,310119,,,*12
$PNAVA,,5.000000,*7F
$GPRMC,091457,A,3406.2723,N,11748.1651,W,21.38,0.00,310119,,,*13
$PNAVA,,5.000000,*7F
$GPRMC,091458,A,3406.2723,N,11748.1651,W,21.38,0.00,310119,,,*1C
$PNAVA,,5.000000,*7F
$GPRMC,091459,A,3406.2723,N,11748.1651,W,21.38,0.00,310119,,,*1D
$PNAVA,,5.000000,*7F
$GPRMC,091500,A,3406.2723,N,11748.1651,W,21.38,0.00,310119,,,*10
$PNAVA,,5.000000,*7F
$GPRMC,091501,A,3406.2723,N,11748.1651,W,21.38,0.00,310119,,,*11
$PNAVA,,5.000000,*7F
$GPRMC,091502,A,3406.2723,N,11748.1651,W,21.38,0.00,310119,,,*12
$PNAVA,,5.000000,*7F
$GPRMC,091503,A,3406.2723,N,11748.1651,W,21.38,0.00,310119,,,*13
$PNAVA,,5.000000,*7F
$GPRMC,091504,A,3406.2723,N,11748.1651,W,21.38,0.00,310119,,,*14
$PNAVA,,5.000000,*7F
$GPRMC,091505,A,3406.2723,N,11748.1651,W,21.38,0.00,310119,,,*15
$PNAVA,,5.000000,*7F
$GPRMC,091506,A,3406.2723,N,11748.1651,W,21.38,0.00,310119,,,*16
$PNAVA,,5.000000,*7F
$GPRMC,091507,A,3406.2723,N,11748.1651,W,21.38,0.00,310119,,,*17
$PNAVA,,5.000000,*7F
$GPRMC,091508,A,3406.2723,N,11748.1651,W,21.38,0.00,310119,,,*18
$PNAVA,,5.000000,*7F
$GPRMC,091509,A,3406.2723,N,11748.1651,W,21.38,0.00,310119,,,*19
$PNAVA,,5.000000,*7F
$GPRMC,091510,A,3406.2723,N,11748.1651,W,21.38,0.00,310119,,,*11
$PNAVA,,5.000000,*7F
$GPRMC,091511,A,3406.2723,N,11748.1651,W,21.38,0.00,310119,,,*10
$PNAVA,,5.000000,*7F
$GPRMC,091512,A,3406.2723,N,11748.1651,W,21.38,0.00,310119,,,*13
$PNAVA,,5.000000,*7F
$GPRMC,091513,A,3406.2723,N,11748.1651,W,21.38,0.00,310119,,,*12
$PNAVA,,5.000000,*7F
$GPRMC,091514,A,3406.2723,N,11748.1651,W,21.38,0.00,310119,,,*15
$PNAVA,,5.000000,*7F
$GPRMC,091515,A,3406.2723,N,11748.1651,W,21.38,0.00,310119,,,*14
$PNAVA,,5.000000,*7F
$GPRMC,091516,A,3406.2723,N,11748.1651,W,21.38,0.00,310119,,,*17
$PNAVA,,5.000000,*7F
$GPRMC,091517,A,3406.2723,N,11748.1651,W,21.38,0.00,310119,,,*16
$PNAVA,,5.000000,*7F
$GPRMC,091518,A,3406.2723,N,11748.1651,W,21.38,0.00,310119,,,*19
$PNAVA,,5.000000,*7F
$GPRMC,091519,A,3406.2723,N,11748.1651,W,21.38,0.00,310119,,,*18
$PNAVA,,5.000000,*7F
$GPRMC,091520,A,3406.2723,N,11748.1651,W,21.38,0.00,310119,,,*12
$PNAVA,,5.000000,*7F
$GPRMC,091521,A,3406.2723,N,11748.1651,W,21.38,0.00,310119,,,*13
$PNAVA,,5.000000,*7F
$GPRMC,091522,A,3406.2723,N,11748.1651,W,21.38,0.00,310119,,,*10
$PNAVA,,5.000000,*7F
$GPRMC,091523,A,3406.2723,N,11748.1651,W,21.38,0.00,310119,,,*11
$PNAVA,,5.000000,*7F
$GPRMC,091524,A,3406.2723,N,11748.1651,W,21.38,0.00,310119,,,*16
$PNAVA,,5.000000,*7F
$GPRMC,091525,A,3406.2723,N,11748.1651,W,21.38,0.00,310119,,,*17
$PNAVA,,5.000000,*7F
$GPRMC,091526,A,3406.2723,N,11748.1651,W,21.38,0.00,310119,,,*14
$PNAVA,,5.000000,*7F
$GPRMC,091527,A,3406.2723,N,11748.1651,W,21.38,0.00,310119,,,*15
$PNAVA,,5.000000,*7F
$GPRMC,091528,A,3406.2723,N,11748.1651,W,21.38,0.00,310119,,,*1A
$PNAVA,,5.000000,*7F
$GPRMC,091529,A,3406.2723,N,11748.1651,W,21.38,0.00,310119,,,*1B
$PNAVA,,5.000000,*7F
$GPRMC,091530,A,3406.2723,N,11748.1651,W,21.38,0.00,310119,,,*13
$PNAVA,,5.000000,*7F
$GPRMC,091531,A,3406.2723,N,11748.1651,W,21.38,0.00,310119,,,*12
$PNAVA,,5.000000,*7F
$GPRMC,091532,A,3406.2723,N,11748.1651,W,21.38,0.00,310119,,,*11
$PNAVA,,5.000000,*7F
$GPRMC,091533,A,3406.2723,N,11748.1651,W,21.38,0.00,310119,,,*10
$PNAVA,,5.000000,*7F
$GPRMC,091534,A,3406.2723,N,11748.1651,W,21.38,0.00,310119,,,*17
$PNAVA,,5.000000,*7F
$GPRMC,091535,A,3406.2723,N,11748.1651,W,21.38,0.00,310119,,,*16
$PNAVA,,5.000000,*7F
$GPRMC,091536,A,3406.2723,N,11748.1651,W,21.38,0.00,310119,,,*15
$PNAVA,,5.000000,*7F
$GPRMC,091537,A,3406.2723,N,11748.1651,W,21.38,0.00,310119,,,*14
$PNAVA,,5.000000,*7F
$GPRMC,091538,A,3406.2723,N,11748.1651,W,21.38,0.00,310119,,,*1B
$PNAVA,,5.000000,*7F
$GPRMC,091539,A,3406.2723,N,11748.1651,W,21.38,0.00,310119,,,*1A
$PNAVA,,5.000000,*7F
$GPRMC,091540,A,3406.2723,N,11748.1651,W,21.38,0.00,310119,,,*14
$PNAVA,,5.000000,*7F
$GPRMC,091541,A,3406.2723,N,11748.1651,W,21.38,0.00,310119,,,*15
$PNAVA,,5.000000,*7F
$GPRMC,091542,A,3406.2723,N,11748.1651,W,21.38,0.00,310119,,,*16
$PNAVA,,5.000000,*7F
$GPRMC,091543,A,3406.2723,N,11748.1651,W,21.38,0.00,310119,,,*17
$PNAVA,,5.000000,*7F
$GPRMC,091544,A,3406.2723,N,11748.1651,W,21.38,0.00,310119,,,*10
$PNAVA,,5.000000,*7F
$GPRMC,091545,A,3406.2723,N,11748.1651,W,21.38,0.00,310119,,,*11
$PNAVA,,5.000000,*7F
$GPRMC,091546,A,3406.2723,N,11748.1651,W,21.38,0.00,310119,,,*12
$PNAVA,,5.000000,*7F
$GPRMC,091547,A,3406.2723,N,11748.1651,W,21.38,0.00,310119,,,*13
$PNAVA,,5.000000,*7F
$GPRMC,091548,A,3406.2723,N,11748.1651,W,21.38,0.00,310119,,,*1C
$PNAVA,,5.000000,*7F
$GPRMC,091549,A,3406.2723,N,11748.1651,W,21.38,0.00,310119,,,*1D
$PNAVA,,5.000000,*7F
$GPRMC,091550,A,3406.2723,N,11748.1651,W,21.38,0.00,310119,,,*15
$PNAVA,,5.000000,*7F
$GPRMC,091551,A,3406.2723,N,11748.1651,W,21.38,0.00,310119,,,*14
$PNAVA,,5.000000,*7F
$GPRMC,091552,A,3406.2723,N,11748.1651,W,21.38,0.00,310119,,,*17
$PNAVA,,5.000000,*7F
$GPRMC,091553,A,3406.2723,N,11748.1651,W,21.38,0.00,310119,,,*16
$PNAVA,,5.000000,*7F
$GPRMC,091554,A,3406.2723,N,11748.1651,W,21.38,0.00,310119,,,*11
$PNAVA,,5.000000,*7F
$GPRMC,091555,A,3406.2723,N,11748.1651,W,21.38,0.00,310119,,,*10
$PNAVA,,5.000000,*7F
$GPRMC,091556,A,3406.2723,N,11748.1651,W,21.38,0.00,310119,,,*13
$PNAVA,,5.000000,*7F
$GPRMC,091557,A,3406.2723,N,11748.1651,W,21.38,0.00,310119,,,*12
$PNAVA,,5.000000,*7F
$GPRMC,091558,A,3406.2723,N,11748.1651,W,21.38,0.00,310119,,,*1D
$PNAVA,,5.000000,*7F
$GPRMC,091559,A,3406.2723,N,11748.1651,W,21.38,0.00,310119,,,*1C
$PNAVA,,5.000000,*7F
$GPRMC,091600,A,3406.2723,N,11748.1651,W,21.38,0.00,310119,,,*13
$PNAVA,,5.000000,*7F
$GPRMC,091601,A,3406.2723,N,11748.1651,W,21.38,0.00,310119,,,*12
$PNAVA,,5.000000,*7F
$GPRMC,091602,A,3406.2723,N,11748.1651,W,21.38,0.00,310119,,,*11
$PNAVA,,5.000000,*7F
$GPRMC,091603,A,3406.2723,N,11748.1651,W,21.38,0.00,310119,,,*10
$PNAVA,,5.000000,*7F
$GPRMC,091604,A,3406.2723,N,11748.1651,W,21.38,0.00,310119,,,*17
$PNAVA,,5.000000,*7F
$GPRMC,091605,A,3406.2723,N,11748.1651,W,21.38,0.00,310119,,,*16
$PNAVA,,5.000000,*7F
$GPRMC,091606,A,3406.2723,N,11748.1651,W,21.38,0.00,310119,,,*15
$PNAVA,,5.000000,*7F
$GPRMC,091607,A,3406.2723,N,11748.1651,W,21.38,0.00,310119,,,*14
$PNAVA,,5.000000,*7F
$GPRMC,091608,A,3406.2723,N,11748.1651,W,21.38,0.00,310119,,,*1B
$PNAVA,,5.000000,*7F
$GPRMC,091609,A,3406.2723,N,11748.1651,W,21.38,0.00,310119,,,*1A
$PNAVA,,5.000000,*7F
$GPRMC,091610,A,3406.2723,N,11748.1651,W,21.38,0.00,310119,,,*12
$PNAVA,,5.000000,*7F
$GPRMC,091611,A,3406.2723,N,11748.1651,W,21.38,0.00,310119,,,*13
$PNAVA,,5.000000,*7F
$GPRMC,091612,A,3406.2723,N,11748.1651,W,21.38,0.00,310119,,,*10
$PNAVA,,5.000000,*7F
$GPRMC,091613,A,3406.2723,N,11748.1651,W,21.38,0.00,310119,,,*11
$PNAVA,,5.000000,*7F
$GPRMC,091614,A,3406.2723,N,11748.1651,W,21.38,0.00,310119,,,*16
$PNAVA,,5.000000,*7F
$GPRMC,091615,A,3406.2723,N,11748.1651,W,21.38,0.00,310119,,,*17
$PNAVA,,5.000000,*7F
$GPRMC,091616,A,3406.2723,N,11748.1651,W,21.38,0.00,310119,,,*14
$PNAVA,,5.000000,*7F
$GPRMC,091617,A,3406.2723,N,11748.1651,W,21.38,0.00,310119,,,*15
$PNAVA,,5.000000,*7F
$GPRMC,091618,A,3406.2723,N,11748.1651,W,21.38,0.00,310119,,,*1A
$PNAVA,,5.000000,*7F
$GPRMC,091619,A,3406.2723,N,11748.1651,W,21.38,0.00,310119,,,*1B
$PNAVA,,5.000000,*7F
$GPRMC,091620,A,3406.2723,N,11748.1651,W,21.38,0.00,310119,,,*11
$PNAVA,,5.000000,*7F
$GPRMC,091621,A,3406.2723,N,11748.1651,W,21.38,0.00,310119,,,*10
$PNAVA,,5.000000,*7F
$GPRMC,091622,A,3406.2723,N,11748.1651,W,21.38,0.00,310119,,,*13
$PNAVA,,5.000000,*7F
$GPRMC,091623,A,3406.2723,N,11748.1651,W,21.38,0.00,310119,,,*12
$PNAVA,,5.000000,*7F
$GPRMC,091624,A,3406.2723,N,11748.1651,W,21.38,0.00,310119,,,*15
$PNAVA,,5.000000,*7F
$GPRMC,091625,A,3406.2723,N,11748.1651,W,21.38,0.00,310119,,,*14
$PNAVA,,5.000000,*7F
$GPRMC,091626,A,3406.2723,N,11748.1651,W,21.38,0.00,310119,,,*17
$PNAVA,,5.000000,*7F
$GPRMC,091627,A,3406.2723,N,11748.1651,W,21.38,0.00,310119,,,*16
$PNAVA,,5.000000,*7F
$GPRMC,091628,A,3406.2723,N,11748.1651,W,21.38,0.00,310119,,,*19
$PNAVA,,5.000000,*7F
$GPRMC,091629,A,3406.2723,N,11748.1651,W,21.38,0.00,310119,,,*18
$PNAVA,,5.000000,*7F
$GPRMC,091630,A,3406.2723,N,11748.1651,W,21.38,0.00,310119,,,*10
$PNAVA,,5.000000,*7F
$GPRMC,091631,A,3406.2723,N,11748.1651,W,21.38,0.00,310119,,,*11
$PNAVA,,5.000000,*7F
$GPRMC,091632,A,3406.2723,N,11748.1651,W,21.38,0.00,310119,,,*12
$PNAVA,,5.000000,*7F
$GPRMC,091633,A,3406.2723,N,11748.1651,W,21.38,0.00,310119,,,*13
$PNAVA,,5.000000,*7F
$GPRMC,091634,A,3406.2723,N,11748.1651,W,21.38,0.00,310119,,,*14
$PNAVA,,5.000000,*7F
$GPRMC,091635,A,3406.2723,N,11748.1651,W,21.38,0.00,310119,,,*15
$PNAVA,,5.000000,*7F
$GPRMC,091636,A,3406.2723,N,11748.1651,W,21.38,0.00,310119,,,*16
$PNAVA,,5.000000,*7F
$GPRMC,091637,A,3406.2723,N,11748.1651,W,21.38,0.00,310119,,,*17
$PNAVA,,5.000000,*7F
$GPRMC,091638,A,3406.2723,N,11748.1651,W,21.38,0.00,310119,,,*18
$PNAVA,,5.000000,*7F
$GPRMC,091639,A,3406.2723,N,11748.1651,W,21.38,0.00,310119,,,*19
$PNAVA,,5.000000,*7F
$GPRMC,091640,A,3406.2723,N,11748.1651,W,21.38,0.00,310119,,,*17
$PNAVA,,5.000000,*7F
$GPRMC,091641,A,3406.2723,N,11748.1651,W,21.38,0.00,310119,,,*16
$PNAVA,,5.000000,*7F
$GPRMC,091642,A,3406.2723,N,11748.1651,W,21.38,0.00,310119,,,*15
$PNAVA,,5.000000,*7F
$GPRMC,091643,A,3406.2723,N,11748.1651,W,21.38,0.00,310119,,,*14
$PNAVA,,5.000000,*7F
$GPRMC,091644,A,3406.2723,N,11748.1651,W,21.38,0.00,310119,,,*13
$PNAVA,,5.000000,*7F
$GPRMC,091645,A,3406.2723,N,11748.1651,W,21.38,0.00,310119,,,*12
$PNAVA,,5.000000,*7F
$GPRMC,091646,A,3406.2723,N,11748.1651,W,21.38,0.00,310119,,,*11
$PNAVA,,5.000000,*7F
$GPRMC,091647,A,3406.2723,N,11748.1651,W,21.38,0.00,310119,,,*10
$PNAVA,,5.000000,*7F
$GPRMC,091648,A,3406.2723,N,11748.1651,W,21.38,0.00,310119,,,*1F
$PNAVA,,5.000000,*7F
$GPRMC,091649,A,3406.2723,N,11748.1651,W,21.38,0.00,310119,,,*1E
$PNAVA,,5.000000,*7F
$GPRMC,091650,A,3406.2723,N,11748.1651,W,21.38,0.00,310119,,,*16
$PNAVA,,5.000000,*7F
$GPRMC,091651,A,3406.2723,N,11748.1651,W,21.38,0.00,310119,,,*17
$PNAVA,,5.000000,*7F
$GPRMC,091652,A,3406.2723,N,11748.1651,W,21.38,0.00,310119,,,*14
$PNAVA,,5.000000,*7F
$GPRMC,091653,A,3406.2723,N,11748.1651,W,21.38,0.00,310119,,,*15
$PNAVA,,5.000000,*7F
$GPRMC,091654,A,3406.2723,N,11748.1651,W,21.38,0.00,310119,,,*12
$PNAVA,,5.000000,*7F
$GPRMC,091655,A,3406.2723,N,11748.1651,W,21.38,0.00,310119,,,*13
$PNAVA,,5.000000,*7F
$GPRMC,091656,A,3406.2723,N,11748.1651,W,21.38,0.00,310119,,,*10
$PNAVA,,5.000000,*7F
$GPRMC,091657,A,3406.2723,N,11748.1651,W,21.38,0.00,310119,,,*11
$PNAVA,,5.000000,*7F
$GPRMC,091658,A,3406.2723,N,11748.1651,W,21.38,0.00,310119,,,*1E
$PNAVA,,5.000000,*7F
$GPRMC,091659,A,3406.2723,N,11748.1651,W,21.38,0.00,310119,,,*1F
$PNAVA,,5.000000,*7F
$GPRMC,091700,A,3406.2723,N,11748.1651,W,21.38,0.00,310119,,,*12
$PNAVA,,5.000000,*7F
$GPRMC,091701,A,3406.2723,N,11748.1651,W,21.38,0.00,310119,,,*13
$PNAVA,,5.000000,*7F
$GPRMC,091702,A,3406.2723,N,11748.1651,W,21.38,0.00,310119,,,*10
$PNAVA,,5.000000,*7F
$GPRMC,091703,A,3406.2723,N,11748.1651,W,21.38,0.00,310119,,,*11
$PNAVA,,5.000000,*7F
$GPRMC,091704,A,3406.2723,N,11748.1651,W,21.38,0.00,310119,,,*16
$PNAVA,,5.000000,*7F
$GPRMC,091705,A,3406.2723,N,11748.1651,W,21.38,0.00,310119,,,*17
$PNAVA,,5.000000,*7F
$GPRMC,091706,A,3406.2723,N,11748.1651,W,21.38,0.00,310119,,,*14
$PNAVA,,5.000000,*7F
$GPRMC,091707,A,3406.2723,N,11748.1651,W,21.38,0.00,310119,,,*15
$PNAVA,,5.000000,*7F
$GPRMC,091708,A,3406.2723,N,11748.1651,W,21.38,0.00,310119,,,*1A
$PNAVA,,5.000000,*7F
$GPRMC,091709,A,3406.2723,N,11748.1651,W,21.38,0.00,310119,,,*1B
$PNAVA,,5.000000,*7F
$GPRMC,091710,A,3406.2723,N,11748.1651,W,21.38,0.00,310119,,,*13
$PNAVA,,5.000000,*7F
$GPRMC,091711,A,3406.2723,N,11748.1651,W,21.38,0.00,310119,,,*12
$PNAVA,,5.000000,*7F
$GPRMC,091712,A,3406.2723,N,11748.1651,W,21.38,0.00,310119,,,*11
$PNAVA,,5.000000,*7F
$GPRMC,091713,A,3406.2723,N,11748.1651,W,21.38,0.00,310119,,,*10
$PNAVA,,5.000000,*7F
$GPRMC,091714,A,3406.2723,N,11748.1651,W,21.38,0.00,310119,,,*17
$PNAVA,,5.000000,*7F
$GPRMC,091715,A,3406.2723,N,11748.1651,W,21.38,0.00,310119,,,*16
$PNAVA,,5.000000,*7F
$GPRMC,091716,A,3406.2723,N,11748.1651,W,21.38,0.00,310119,,,*15
$PNAVA,,5.000000,*7F
$GPRMC,091717,A,3406.2723,N,11748.1651,W,21.38,0.00,310119,,,*14
$PNAVA,,5.000000,*7F
$GPRMC,091718,A,3406.2723,N,11748.1651,W,21.38,0.00,310119,,,*1B
$PNAVA,,5.000000,*7F
$GPRMC,091719,A,3406.2723,N,11748.1651,W,21.38,0.00,310119,,,*1A
$PNAVA,,5.000000,*7F
$GPRMC,091720,A,3406.2723,N,11748.1651,W,21.38,0.00,310119,,,*10
$PNAVA,,5.000000,*7F
$GPRMC,091721,A,3406.2723,N,11748.1651,W,21.38,0.00,310119,,,*11
$PNAVA,,5.000000,*7F
$GPRMC,091722,A,3406.2723,N,11748.1651,W,21.38,0.00,310119,,,*12
$PNAVA,,5.000000,*7F
$GPRMC,091723,A,3406.2723,N,11748.1651,W,21.38,0.00,310119,,,*13
$PNAVA,,5.000000,*7F
$GPRMC,091724,A,3406.2723,N,11748.1651,W,21.38,0.00,310119,,,*14
$PNAVA,,5.000000,*7F
$GPRMC,091725,A,3406.2723,N,11748.1651,W,21.38,0.00,310119,,,*15
$PNAVA,,5.000000,*7F
$GPRMC,091726,A,3406.2723,N,11748.1651,W,21.38,0.00,310119,,,*16
$PNAVA,,5.000000,*7F
$GPRMC,091727,A,3406.2723,N,11748.1651,W,21.38,0.00,310119,,,*17
$PNAVA,,5.000000,*7F
$GPRMC,091728,A,3406.2723,N,11748.1651,W,21.38,0.00,310119,,,*18
$PNAVA,,5.000000,*7F
$GPRMC,091729,A,3406.2723,N,11748.1651,W,21.38,0.00,310119,,,*19
$PNAVA,,5.000000,*7F
$GPRMC,091730,A,3406.2723,N,11748.1651,W,21.38,0.00,310119,,,*11
$PNAVA,,5.000000,*7F
$GPRMC,091731,A,3406.2723,N,11748.1651,W,21.38,0.00,310119,,,*10
$PNAVA,,5.000000,*7F
$GPRMC,091732,A,3406.2723,N,11748.1651,W,21.38,0.00,310119,,,*13
$PNAVA,,5.000000,*7F
$GPRMC,091733,A,3406.2723,N,11748.1651,W,21.38,0.00,310119,,,*12
$PNAVA,,5.000000,*7F
$GPRMC,091734,A,3406.2723,N,11748.1651,W,21.38,0.00,310119,,,*15
$PNAVA,,5.000000,*7F
$GPRMC,091735,A,3406.2723,N,11748.1651,W,21.38,0.00,310119,,,*14
$PNAVA,,5.000000,*7F
$GPRMC,091736,A,3406.2723,N,11748.1651,W,21.38,0.00,310119,,,*17
$PNAVA,,5.000000,*7F
$GPRMC,091737,A,3406.2723,N,11748.1651,W,21.38,0.00,310119,,,*16
$PNAVA,,5.000000,*7F
$GPRMC,091738,A,3406.2723,N,11748.1651,W,21.38,0.00,310119,,,*19
$PNAVA,,5.000000,*7F
$GPRMC,091739,A,3406.2723,N,11748.1651,W,21.38,0.00,310119,,,*18
$PNAVA,,5.000000,*7F
$GPRMC,091740,A,3406.2723,N,11748.1651,W,21.38,0.00,310119,,,*16
$PNAVA,,5.000000,*7F
$GPRMC,091741,A,3406.2723,N,11748.1651,W,21.38,0.00,310119,,,*17
$PNAVA,,5.000000,*7F
$GPRMC,091742,A,3406.2723,N,11748.1651,W,21.38,0.00,310119,,,*14
$PNAVA,,5.000000,*7F
$GPRMC,091743,A,3406.2723,N,11748.1651,W,21.38,0.00,310119,,,*15
$PNAVA,,5.000000,*7F
$GPRMC,091744,A,3406.2723,N,11748.1651,W,21.38,0.00,310119,,,*12
$PNAVA,,5.000000,*7F
$GPRMC,091745,A,3406.2723,N,11748.1651,W,21.38,0.00,310119,,,*13
$PNAVA,,5.000000,*7F
$GPRMC,091746,A,3406.2723,N,11748.1651,W,21.38,0.00,310119,,,*10
$PNAVA,,5.000000,*7F
$GPRMC,091747,A,3406.2723,N,11748.1651,W,21.38,0.00,310119,,,*11
$PNAVA,,5.000000,*7F
$GPRMC,091748,A,3406.2723,N,11748.1651,W,21.38,0.00,310119,,,*1E
$PNAVA,,5.000000,*7F
$GPRMC,091749,A,3406.2723,N,11748.1651,W,21.38,0.00,310119,,,*1F
$PNAVA,,5.000000,*7F
$GPRMC,091750,A,3406.2723,N,11748.1651,W,21.38,0.00,310119,,,*17
$PNAVA,,5.000000,*7F
$GPRMC,091751,A,3406.2723,N,11748.1651,W,21.38,0.00,310119,,,*16
$PNAVA,,5.000000,*7F
$GPRMC,091752,A,3406.2723,N,11748.1651,W,21.38,0.00,310119,,,*15
$PNAVA,,5.000000,*7F
$GPRMC,091753,A,3406.2723,N,11748.1651,W,21.38,0.00,310119,,,*14
$PNAVA,,5.000000,*7F
$GPRMC,091754,A,3406.2723,N,11748.1651,W,21.38,0.00,310119,,,*13
$PNAVA,,5.000000,*7F
$GPRMC,091755,A,3406.2723,N,11748.1651,W,21.38,0.00,310119,,,*12
$PNAVA,,5.000000,*7F
$GPRMC,091756,A,3406.2723,N,11748.1651,W,21.38,0.00,310119,,,*11
$PNAVA,,5.000000,*7F
$GPRMC,091757,A,3406.2723,N,11748.1651,W,21.38,0.00,310119,,,*10
$PNAVA,,5.000000,*7F
$GPRMC,091758,A,3406.2723,N,11748.1651,W,21.38,0.00,310119,,,*1F
$PNAVA,,5.000000,*7F
$GPRMC,091759,A,3406.2723,N,11748.1651,W,21.38,0.00,310119,,,*1E
$PNAVA,,5.000000,*7F
$GPRMC,091800,A,3406.2723,N,11748.1651,W,21.38,0.00,310119,,,*1D
$PNAVA,,5.000000,*7F
$GPRMC,091801,A,3406.2723,N,11748.1651,W,21.38,0.00,310119,,,*1C
$PNAVA,,5.000000,*7F
$GPRMC,091802,A,3406.2723,N,11748.1651,W,21.38,0.00,310119,,,*1F
$PNAVA,,5.000000,*7F
$GPRMC,091803,A,3406.2723,N,11748.1651,W,21.38,0.00,310119,,,*1E
$PNAVA,,5.000000,*7F
$GPRMC,091804,A,3406.2723,N,11748.1651,W,21.38,0.00,310119,,,*19
$PNAVA,,5.000000,*7F
$GPRMC,091805,A,3406.2723,N,11748.1651,W,21.38,0.00,310119,,,*18
$PNAVA,,5.000000,*7F
$GPRMC,091806,A,3406.2723,N,11748.1651,W,21.38,0.00,310119,,,*1B
$PNAVA,,5.000000,*7F
$GPRMC,091807,A,3406.2723,N,11748.1651,W,21.38,0.00,310119,,,*1A
$PNAVA,,5.000000,*7F
$GPRMC,091808,A,3406.2723,N,11748.1651,W,21.38,0.00,310119,,,*15
$PNAVA,,5.000000,*7F
$GPRMC,091809,A,3406.2723,N,11748.1651,W,21.38,0.00,310119,,,*14
$PNAVA,,5.000000,*7F
$GPRMC,091810,A,3406.2723,N,11748.1651,W,21.38,0.00,310119,,,*1C
$PNAVA,,5.000000,*7F
$GPRMC,091811,A,3406.2723,N,11748.1651,W,21.38,0.00,310119,,,*1D
$PNAVA,,5.000000,*7F
$GPRMC,091812,A,3406.2723,N,11748.1651,W,21.38,0.00,310119,,,*1E
$PNAVA,,5.000000,*7F
$GPRMC,091813,A,3406.2723,N,11748.1651,W,21.38,0.00,310119,,,*1F
$PNAVA,,5.000000,*7F
$GPRMC,091814,A,3406.2723,N,11748.1651,W,21.38,0.00,310119,,,*18
$PNAVA,,5.000000,*7F
$GPRMC,091815,A,3406.2723,N,11748.1651,W,21.38,0.00,310119,,,*19
$PNAVA,,5.000000,*7F
$GPRMC,091816,A,3406.2723,N,11748.1651,W,21.38,0.00,310119,,,*1A
$PNAVA,,5.000000,*7F
$GPRMC,091817,A,3406.2723,N,11748.1651,W,21.38,0.00,310119,,,*1B
$PNAVA,,5.000000,*7F
$GPRMC,091818,A,3406.2723,N,11748.1651,W,21.38,0.00,310119,,,*14
$PNAVA,,5.000000,*7F
$GPRMC,091819,A,3406.2723,N,11748.1651,W,21.38,0.00,310119,,,*15
$PNAVA,,5.000000,*7F
$GPRMC,091820,A,3406.2723,N,11748.1651,W,21.38,0.00,310119,,,*1F
$PNAVA,,5.000000,*7F
$GPRMC,091821,A,3406.2723,N,11748.1651,W,21.38,0.00,310119,,,*1E
$PNAVA,,5.000000,*7F
$GPRMC,091822,A,3406.2723,N,11748.1651,W,21.38,0.00,310119,,,*1D
$PNAVA,,5.000000,*7F
$GPRMC,091823,A,3406.2723,N,11748.1651,W,21.38,0.00,310119,,,*1C
$PNAVA,,5.000000,*7F
$GPRMC,091824,A,3406.2723,N,11748.1651,W,21.38,0.00,310119,,,*1B
$PNAVA,,5.000000,*7F
$GPRMC,091825,A,3406.2723,N,11748.1651,W,21.38,0.00,310119,,,*1A
$PNAVA,,5.000000,*7F
$GPRMC,091826,A,3406.2723,N,11748.1651,W,21.38,0.00,310119,,,*19
$PNAVA,,5.000000,*7F
$GPRMC,091827,A,3406.2723,N,11748.1651,W,21.38,0.00,310119,,,*18
$PNAVA,,5.000000,*7F
$GPRMC,091828,A,3406.2723,N,11748.1651,W,21.38,0.00,310119,,,*17
$PNAVA,,5.000000,*7F
$GPRMC,091829,A,3406.2723,N,11748.1651,W,21.38,0.00,310119,,,*16
$PNAVA,,5.000000,*7F
$GPRMC,091830,A,3406.2723,N,11748.1651,W,21.38,0.00,310119,,,*1E
$PNAVA,,5.000000,*7F
$GPRMC,091831,A,3406.2723,N,11748.1651,W,21.38,0.00,310119,,,*1F
$PNAVA,,5.000000,*7F
$GPRMC,091832,A,3406.2723,N,11748.1651,W,21.38,0.00,310119,,,*1C
$PNAVA,,5.000000,*7F
$GPRMC,091833,A,3406.2723,N,11748.1651,W,21.38,0.00,310119,,,*1D
$PNAVA,,5.000000,*7F
$GPRMC,091834,A,3406.2723,N,11748.1651,W,21.38,0.00,310119,,,*1A
$PNAVA,,5.000000,*7F
$GPRMC,091835,A,3406.2723,N,11748.1651,W,21.38,0.00,310119,,,*1B
$PNAVA,,5.000000,*7F
$GPRMC,091836,A,3406.2723,N,11748.1651,W,21.38,0.00,310119,,,*18
$PNAVA,,5.000000,*7F
$GPRMC,091837,A,3406.2723,N,11748.1651,W,21.38,0.00,310119,,,*19
$PNAVA,,5.000000,*7F
$GPRMC,091838,A,3406.2723,N,11748.1651,W,21.38,0.00,310119,,,*16
$PNAVA,,5.000000,*7F
$GPRMC,091839,A,3406.2723,N,11748.1651,W,21.38,0.00,310119,,,*17
$PNAVA,,5.000000,*7F
$GPRMC,091840,A,3406.2723,N,11748.1651,W,21.38,0.00,310119,,,*19
$PNAVA,,5.000000,*7F
$GPRMC,091841,A,3406.2723,N,11748.1651,W,21.38,0.00,310119,,,*18
$PNAVA,,5.000000,*7F
$GPRMC,091842,A,3406.2723,N,11748.1651,W,21.38,0.00,310119,,,*1B
$PNAVA,,5.000000,*7F
$GPRMC,091843,A,3406.2723,N,11748.1651,W,21.38,0.00,310119,,,*1A
$PNAVA,,5.000000,*7F
$GPRMC,091844,A,3406.2723,N,11748.1651,W,21.38,0.00,310119,,,*1D
$PNAVA,,5.000000,*7F
$GPRMC,091845,A,3406.2723,N,11748.1651,W,21.38,0.00,310119,,,*1C
$PNAVA,,5.000000,*7F
$GPRMC,091846,A,3406.2723,N,11748.1651,W,21.38,0.00,310119,,,*1F
$PNAVA,,5.000000,*7F
$GPRMC,091847,A,3406.2723,N,11748.1651,W,21.38,0.00,310119,,,*1E
$PNAVA,,5.000000,*7F
$GPRMC,091848,A,3406.2723,N,11748.1651,W,21.38,0.00,310119,,,*11
$PNAVA,,5.000000,*7F
$GPRMC,091849,A,3406.2723,N,11748.1651,W,21.38,0.00,310119,,,*10
$PNAVA,,5.000000,*7F
$GPRMC,091850,A,3406.2723,N,11748.1651,W,21.38,0.00,310119,,,*18
$PNAVA,,5.000000,*7F
$GPRMC,091851,A,3406.2723,N,11748.1651,W,21.38,0.00,310119,,,*19
$PNAVA,,5.000000,*7F
$GPRMC,091852,A,3406.2723,N,11748.1651,W,21.38,0.00,310119,,,*1A
$PNAVA,,5.000000,*7F
$GPRMC,091853,A,3406.2723,N,11748.1651,W,21.38,0.00,310119,,,*1B
$PNAVA,,5.000000,*7F
$GPRMC,091854,A,3406.2723,N,11748.1651,W,21.38,0.00,310119,,,*1C
$PNAVA,,5.000000,*7F
$GPRMC,091855,A,3406.2723,N,11748.1651,W,21.38,0.00,310119,,,*1D
$PNAVA,,5.000000,*7F
$GPRMC,091856,A,3406.2723,N,11748.1651,W,21.38,0.00,310119,,,*1E
$PNAVA,,5.000000,*7F
$GPRMC,091857,A,3406.2723,N,11748.1651,W,21.38,0.00,310119,,,*1F
$PNAVA,,5.000000,*7F
$GPRMC,091858,A,3406.2723,N,11748.1651,W,21.38,0.00,310119,,,*10
$PNAVA,,5.000000,*7F
$GPRMC,091859,A,3406.2723,N,11748.1651,W,21.38,0.00,310119,,,*11
$PNAVA,,5.000000,*7F
$GPRMC,091900,A,3406.2723,N,11748.1651,W,21.38,0.00,310119,,,*1C
$PNAVA,,5.000000,*7F
$GPRMC,091901,A,3406.2723,N,11748.1651,W,21.38,0.00,310119,,,*1D
$PNAVA,,5.000000,*7F
$GPRMC,091902,A,3406.2723,N,11748.1651,W,21.38,0.00,310119,,,*1E
$PNAVA,,5.000000,*7F
$GPRMC,091903,A,3406.2723,N,11748.1651,W,21.38,0.00,310119,,,*1F
$PNAVA,,5.000000,*7F
$GPRMC,091904,A,3406.2723,N,11748.1651,W,21.38,0.00,310119,,,*18
$PNAVA,,5.000000,*7F
$GPRMC,091905,A,3406.2723,N,11748.1651,W,21.38,0.00,310119,,,*19
$PNAVA,,5.000000,*7F
$GPRMC,091906,A,3406.2723,N,11748.1651,W,21.38,0.00,310119,,,*1A
$PNAVA,,5.000000,*7F
$GPRMC,091907,A,3406.2723,N,11748.1651,W,21.38,0.00,310119,,,*1B
$PNAVA,,5.000000,*7F
$GPRMC,091908,A,3406.2723,N,11748.1651,W,21.38,0.00,310119,,,*14
$PNAVA,,5.000000,*7F
$GPRMC,091909,A,3406.2723,N,11748.1651,W,21.38,0.00,310119,,,*15
$PNAVA,,5.000000,*7F
$GPRMC,091910,A,3406.2723,N,11748.1651,W,21.38,0.00,310119,,,*1D
$PNAVA,,5.000000,*7F
$GPRMC,091911,A,3406.2723,N,11748.1651,W,21.38,0.00,310119,,,*1C
$PNAVA,,5.000000,*7F
$GPRMC,091912,A,3406.2723,N,11748.1651,W,21.38,0.00,310119,,,*1F
$PNAVA,,5.000000,*7F
$GPRMC,091913,A,3406.2723,N,11748.1651,W,21.38,0.00,310119,,,*1E
$PNAVA,,5.000000,*7F
$GPRMC,091914,A,3406.2723,N,11748.1651,W,21.38,0.00,310119,,,*19
$PNAVA,,5.000000,*7F
$GPRMC,091915,A,3406.2723,N,11748.1651,W,21.38,0.00,310119,,,*18
$PNAVA,,5.000000,*7F
$GPRMC,091916,A,3406.2723,N,11748.1651,W,21.38,0.00,310119,,,*1B
$PNAVA,,5.000000,*7F
$GPRMC,091917,A,3406.2723,N,11748.1651,W,21.38,0.00,310119,,,*1A
$PNAVA,,5.000000,*7F
$GPRMC,091918,A,3406.2723,N,11748.1651,W,21.38,0.00,310119,,,*15
$PNAVA,,5.000000,*7F
$GPRMC,091919,A,3406.2723,N,11748.1651,W,21.38,0.00,310119,,,*14
$PNAVA,,5.000000,*7F
$GPRMC,091920,A,3406.2723,N,11748.1651,W,21.38,0.00,310119,,,*1E
$PNAVA,,5.000000,*7F
$GPRMC,091921,A,3406.2723,N,11748.1651,W,21.38,0.00,310119,,,*1F
$PNAVA,,5.000000,*7F
$GPRMC,091922,A,3406.2723,N,11748.1651,W,21.38,0.00,310119,,,*1C
$PNAVA,,5.000000,*7F
$GPRMC,091923,A,3406.2723,N,11748.1651,W,21.38,0.00,310119,,,*1D
$PNAVA,,5.000000,*7F
$GPRMC,091924,A,3406.2723,N,11748.1651,W,21.38,0.00,310119,,,*1A
$PNAVA,,5.000000,*7F
$GPRMC,091925,A,3406.2723,N,11748.1651,W,21.38,0.00,310119,,,*1B
$PNAVA,,5.000000,*7F
$GPRMC,091926,A,3406.2723,N,11748.1651,W,21.38,0.00,310119,,,*18
$PNAVA,,5.000000,*7F
$GPRMC,091927,A,3406.2723,N,11748.1651,W,21.38,0.00,310119,,,*19
$PNAVA,,5.000000,*7F
$GPRMC,091928,A,3406.2723,N,11748.1651,W,21.38,0.00,310119,,,*16
$PNAVA,,5.000000,*7F
$GPRMC,091929,A,3406.2723,N,11748.1651,W,21.38,0.00,310119,,,*17
$PNAVA,,5.000000,*7F
$GPRMC,091930,A,3406.2723,N,11748.1651,W,21.38,0.00,310119,,,*1F
$PNAVA,,5.000000,*7F
$GPRMC,091931,A,3406.2723,N,11748.1651,W,21.38,0.00,310119,,,*1E
$PNAVA,,5.000000,*7F
$GPRMC,091932,A,3406.2723,N,11748.1651,W,21.38,0.00,310119,,,*1D
$PNAVA,,5.000000,*7F
$GPRMC,091933,A,3406.2723,N,11748.1651,W,21.38,0.00,310119,,,*1C
$PNAVA,,5.000000,*7F
$GPRMC,091934,A,3406.2723,N,11748.1651,W,21.38,0.00,310119,,,*1B
$PNAVA,,5.000000,*7F
$GPRMC,091935,A,3406.2723,N,11748.1651,W,21.38,0.00,310119,,,*1A
$PNAVA,,5.000000,*7F
$GPRMC,091936,A,3406.2723,N,11748.1651,W,21.38,0.00,310119,,,*19
$PNAVA,,5.000000,*7F
$GPRMC,091937,A,3406.2723,N,11748.1651,W,21.38,0.00,310119,,,*18
$PNAVA,,5.000000,*7F
$GPRMC,091938,A,3406.2723,N,11748.1651,W,21.38,0.00,310119,,,*17
$PNAVA,,5.000000,*7F
$GPRMC,091939,A,3406.2723,N,11748.1651,W,21.38,0.00,310119,,,*16
$PNAVA,,5.000000,*7F
$GPRMC,091940,A,3406.2723,N,11748.1651,W,21.38,0.00,310119,,,*18
$PNAVA,,5.000000,*7F
$GPRMC,091941,A,3406.2723,N,11748.1651,W,21.38,0.00,310119,,,*19
$PNAVA,,5.000000,*7F
$GPRMC,091942,A,3406.2723,N,11748.1651,W,21.38,0.00,310119,,,*1A
$PNAVA,,5.000000,*7F
$GPRMC,091943,A,3406.2723,N,11748.1651,W,21.38,0.00,310119,,,*1B
$PNAVA,,5.000000,*7F
$GPRMC,091944,A,3406.2723,N,11748.1651,W,21.38,0.00,310119,,,*1C
$PNAVA,,5.000000,*7F
$GPRMC,091945,A,3406.2723,N,11748.1651,W,21.38,0.00,310119,,,*1D
$PNAVA,,5.000000,*7F
$GPRMC,091946,A,3406.2723,N,11748.1651,W,21.38,0.00,310119,,,*1E
$PNAVA,,5.000000,*7F
$GPRMC,091947,A,3406.2723,N,11748.1651,W,21.38,0.00,310119,,,*1F
$PNAVA,,5.000000,*7F
$GPRMC,091948,A,3406.2723,N,11748.1651,W,21.38,0.00,310119,,,*10
$PNAVA,,5.000000,*7F
$GPRMC,091949,A,3406.2723,N,11748.1651,W,21.38,0.00,310119,,,*11
$PNAVA,,5.000000,*7F
$GPRMC,091950,A,3406.2723,N,11748.1651,W,21.38,0.00,310119,,,*19
$PNAVA,,5.000000,*7F
$GPRMC,091951,A,3406.2723,N,11748.1651,W,21.38,0.00,310119,,,*18
$PNAVA,,5.000000,*7F
$GPRMC,091952,A,3406.2723,N,11748.1651,W,21.38,0.00,310119,,,*1B
$PNAVA,,5.000000,*7F
$GPRMC,091953,A,3406.2723,N,11748.1651,W,21.38,0.00,310119,,,*1A
$PNAVA,,5.000000,*7F
$GPRMC,091954,A,3406.2723,N,11748.1651,W,21.38,0.00,310119,,,*1D
$PNAVA,,5.000000,*7F
$GPRMC,091955,A,3406.2723,N,11748.1651,W,21.38,0.00,310119,,,*1C
$PNAVA,,5.000000,*7F
$GPRMC,091956,A,3406.2723,N,11748.1651,W,21.38,0.00,310119,,,*1F
$PNAVA,,5.000000,*7F
$GPRMC,091957,A,3406.2723,N,11748.1651,W,21.38,0.00,310119,,,*1E
$PNAVA,,5.000000,*7F
$GPRMC,091958,A,3406.2723,N,11748.1651,W,21.38,0.00,310119,,,*11
$PNAVA,,5.000000,*7F
$GPRMC,091959,A,3406.2723,N,11748.1651,W,21.38,0.00,310119,,,*10
$PNAVA,,5.000000,*7F
$GPRMC,092000,A,3406.2723,N,11748.1651,W,21.38,0.00,310119,,,*16
$PNAVA,,5.000000,*7F
$GPRMC,092001,A,3406.2723,N,11748.1651,W,21.38,0.00,310119,,,*17
$PNAVA,,5.000000,*7F
$GPRMC,092002,A,3406.2723,N,11748.1651,W,21.38,0.00,310119,,,*14
$PNAVA,,5.000000,*7F
$GPRMC,092003,A,3406.2723,N,11748.1651,W,21.38,0.00,310119,,,*15
$PNAVA,,5.000000,*7F
$GPRMC,092004,A,3406.2723,N,11748.1651,W,21.38,0.00,310119,,,*12
$PNAVA,,5.000000,*7F
$GPRMC,092005,A,3406.2723,N,11748.1651,W,21.38,0.00,310119,,,*13
$PNAVA,,5.000000,*7F
$GPRMC,092006,A,3406.2723,N,11748.1651,W,21.38,0.00,310119,,,*10
$PNAVA,,5.000000,*7F
$GPRMC,092007,A,3406.2723,N,11748.1651,W,21.38,0.00,310119,,,*11
$PNAVA,,5.000000,*7F
$GPRMC,092008,A,3406.2723,N,11748.1651,W,21.38,0.00,310119,,,*1E
$PNAVA,,5.000000,*7F
$GPRMC,092009,A,3406.2723,N,11748.1651,W,21.38,0.00,310119,,,*1F
$PNAVA,,5.000000,*7F
$GPRMC,092010,A,3406.2723,N,11748.1651,W,21.38,0.00,310119,,,*17
$PNAVA,,5.000000,*7F
$GPRMC,092011,A,3406.2723,N,11748.1651,W,21.38,0.00,310119,,,*16
$PNAVA,,5.000000,*7F
$GPRMC,092012,A,3406.2723,N,11748.1651,W,21.38,0.00,310119,,,*15
$PNAVA,,5.000000,*7F
$GPRMC,092013,A,3406.2723,N,11748.1651,W,21.38,0.00,310119,,,*14
$PNAVA,,5.000000,*7F
$GPRMC,092014,A,3406.2723,N,11748.1651,W,21.38,0.00,310119,,,*13
$PNAVA,,5.000000,*7F
$GPRMC,092015,A,3406.2723,N,11748.1651,W,21.38,0.00,310119,,,*12
$PNAVA,,5.000000,*7F
$GPRMC,092016,A,3406.2723,N,11748.1651,W,21.38,0.00,310119,,,*11
$PNAVA,,5.000000,*7F
$GPRMC,092017,A,3406.2723,N,11748.1651,W,21.38,0.00,310119,,,*10
$PNAVA,,5.000000,*7F
$GPRMC,092018,A,3406.2723,N,11748.1651,W,21.38,0.00,310119,,,*1F
$PNAVA,,5.000000,*7F
$GPRMC,092019,A,3406.2723,N,11748.1651,W,21.38,0.00,310119,,,*1E
$PNAVA,,5.000000,*7F
$GPRMC,092020,A,3406.2723,N,11748.1651,W,21.38,0.00,310119,,,*14
$PNAVA,,5.000000,*7F
$GPRMC,092021,A,3406.2723,N,11748.1651,W,21.38,0.00,310119,,,*15
$PNAVA,,5.000000,*7F
$GPRMC,092022,A,3406.2723,N,11748.1651,W,21.38,0.00,310119,,,*16
$PNAVA,,5.000000,*7F
$GPRMC,092023,A,3406.2723,N,11748.1651,W,21.38,0.00,310119,,,*17
$PNAVA,,5.000000,*7F
$GPRMC,092024,A,3406.2723,N,11748.1651,W,21.38,0.00,310119,,,*10
$PNAVA,,5.000000,*7F
$GPRMC,092025,A,3406.2723,N,11748.1651,W,21.38,0.00,310119,,,*11
$PNAVA,,5.000000,*7F
$GPRMC,092026,A,3406.2723,N,11748.1651,W,21.38,0.00,310119,,,*12
$PNAVA,,5.000000,*7F
$GPRMC,092027,A,3406.2723,N,11748.1651,W,21.38,0.00,310119,,,*13
$PNAVA,,5.000000,*7F
$GPRMC,092028,A,3406.2723,N,11748.1651,W,21.38,0.00,310119,,,*1C
$PNAVA,,5.000000,*7F
$GPRMC,092029,A,3406.2723,N,11748.1651,W,21.38,0.00,310119,,,*1D
$PNAVA,,5.000000,*7F
$GPRMC,092030,A,3406.2723,N,11748.1651,W,21.38,0.00,310119,,,*15
$PNAVA,,5.000000,*7F
$GPRMC,092031,A,3406.2723,N,11748.1651,W,21.38,0.00,310119,,,*14
$PNAVA,,5.000000,*7F
$GPRMC,092032,A,3406.2723,N,11748.1651,W,21.38,0.00,310119,,,*17
$PNAVA,,5.000000,*7F
$GPRMC,092033,A,3406.2723,N,11748.1651,W,21.38,0.00,310119,,,*16
$PNAVA,,5.000000,*7F
$GPRMC,092034,A,3406.2723,N,11748.1651,W,21.38,0.00,310119,,,*11
$PNAVA,,5.000000,*7F
$GPRMC,092035,A,3406.2723,N,11748.1651,W,21.38,0.00,310119,,,*10
$PNAVA,,5.000000,*7F
$GPRMC,092036,A,3406.2723,N,11748.1651,W,21.38,0.00,310119,,,*13
$PNAVA,,5.000000,*7F
$GPRMC,092037,A,3406.2723,N,11748.1651,W,21.38,0.00,310119,,,*12
$PNAVA,,5.000000,*7F
$GPRMC,092038,A,3406.2723,N,11748.1651,W,21.38,0.00,310119,,,*1D
$PNAVA,,5.000000,*7F
$GPRMC,092039,A,3406.2723,N,11748.1651,W,21.38,0.00,310119,,,*1C
$PNAVA,,5.000000,*7F
$GPRMC,092040,A,3406.2723,N,11748.1651,W,21.38,0.00,310119,,,*12
$PNAVA,,5.000000,*7F
$GPRMC,092041,A,3406.2723,N,11748.1651,W,21.38,0.00,310119,,,*13
$PNAVA,,5.000000,*7F
$GPRMC,092042,A,3406.2723,N,11748.1651,W,21.38,0.00,310119,,,*10
$PNAVA,,5.000000,*7F
$GPRMC,092043,A,3406.2723,N,11748.1651,W,21.38,0.00,310119,,,*11
$PNAVA,,5.000000,*7F
$GPRMC,092044,A,3406.2723,N,11748.1651,W,21.38,0.00,310119,,,*16
$PNAVA,,5.000000,*7F
$GPRMC,092045,A,3406.2723,N,11748.1651,W,21.38,0.00,310119,,,*17
$PNAVA,,5.000000,*7F
$GPRMC,092046,A,3406.2723,N,11748.1651,W,21.38,0.00,310119,,,*14
$PNAVA,,5.000000,*7F
$GPRMC,092047,A,3406.2723,N,11748.1651,W,21.38,0.00,310119,,,*15
$PNAVA,,5.000000,*7F
$GPRMC,092048,A,3406.2723,N,11748.1651,W,21.38,0.00,310119,,,*1A
$PNAVA,,5.000000,*7F
$GPRMC,092049,A,3406.2723,N,11748.1651,W,21.38,0.00,310119,,,*1B
$PNAVA,,5.000000,*7F
$GPRMC,092050,A,3406.2723,N,11748.1651,W,21.38,0.00,310119,,,*13
$PNAVA,,5.000000,*7F
$GPRMC,092051,A,3406.2723,N,11748.1651,W,21.38,0.00,310119,,,*12
$PNAVA,,5.000000,*7F
$GPRMC,092052,A,3406.2723,N,11748.1651,W,21.38,0.00,310119,,,*11
$PNAVA,,5.000000,*7F
$GPRMC,092053,A,3406.2723,N,11748.1651,W,21.38,0.00,310119,,,*10
$PNAVA,,5.000000,*7F
$GPRMC,092054,A,3406.2723,N,11748.1651,W,21.38,0.00,310119,,,*17
$PNAVA,,5.000000,*7F
$GPRMC,092055,A,3406.2723,N,11748.1651,W,21.38,0.00,310119,,,*16
$PNAVA,,5.000000,*7F
$GPRMC,092056,A,3406.2723,N,11748.1651,W,21.38,0.00,310119,,,*15
$PNAVA,,5.000000,*7F
$GPRMC,092057,A,3406.2723,N,11748.1651,W,21.38,0.00,310119,,,*14
$PNAVA,,5.000000,*7F
$GPRMC,092058,A,3406.2723,N,11748.1651,W,21.38,0.00,310119,,,*1B
$PNAVA,,5.000000,*7F
$GPRMC,092059,A,3406.2723,N,11748.1651,W,21.38,0.00,310119,,,*1A
$PNAVA,,5.000000,*7F
$GPRMC,092100,A,3406.2723,N,11748.1651,W,21.38,0.00,310119,,,*17
$PNAVA,,5.000000,*7F
$GPRMC,092101,A,3406.2723,N,11748.1651,W,21.38,0.00,310119,,,*16
$PNAVA,,5.000000,*7F
$GPRMC,092102,A,3406.2723,N,11748.1651,W,21.38,0.00,310119,,,*15
$PNAVA,,5.000000,*7F
$GPRMC,092103,A,3406.2723,N,11748.1651,W,21.38,0.00,310119,,,*14
$PNAVA,,5.000000,*7F
$GPRMC,092104,A,3406.2723,N,11748.1651,W,21.38,0.00,310119,,,*13
$PNAVA,,5.000000,*7F
$GPRMC,092105,A,3406.2723,N,11748.1651,W,21.38,0.00,310119,,,*12
$PNAVA,,5.000000,*7F
$GPRMC,092106,A,3406.2723,N,11748.1651,W,21.38,0.00,310119,,,*11
$PNAVA,,5.000000,*7F
$GPRMC,092107,A,3406.2723,N,11748.1651,W,21.38,0.00,310119,,,*10
$PNAVA,,5.000000,*7F
$GPRMC,092108,A,3406.2723,N,11748.1651,W,21.38,0.00,310119,,,*1F
$PNAVA,,5.000000,*7F
$GPRMC,092109,A,3406.2723,N,11748.1651,W,21.38,0.00,310119,,,*1E
$PNAVA,,5.000000,*7F
$GPRMC,092110,A,3406.2723,N,11748.1651,W,21.38,0.00,310119,,,*16
$PNAVA,,5.000000,*7F
$GPRMC,092111,A,3406.2723,N,11748.1651,W,21.38,0.00,310119,,,*17
$PNAVA,,5.000000,*7F
$GPRMC,092112,A,3406.2723,N,11748.1651,W,21.38,0.00,310119,,,*14
$PNAVA,,5.000000,*7F
$GPRMC,092113,A,3406.2723,N,11748.1651,W,21.38,0.00,310119,,,*15
$PNAVA,,5.000000,*7F
$GPRMC,092114,A,3406.2723,N,11748.1651,W,21.38,0.00,310119,,,*12
$PNAVA,,5.000000,*7F
$GPRMC,092115,A,3406.2723,N,11748.1651,W,21.38,0.00,310119,,,*13
$PNAVA,,5.000000,*7F
$GPRMC,092116,A,3406.2723,N,11748.1651,W,21.38,0.00,310119,,,*10
$PNAVA,,5.000000,*7F
$GPRMC,092117,A,3406.2723,N,11748.1651,W,21.38,0.00,310119,,,*11
$PNAVA,,5.000000,*7F
$GPRMC,092118,A,3406.2723,N,11748.1651,W,21.38,0.00,310119,,,*1E
$PNAVA,,5.000000,*7F
$GPRMC,092119,A,3406.2723,N,11748.1651,W,21.38,0.00,310119,,,*1F
$PNAVA,,5.000000,*7F
$GPRMC,092120,A,3406.2723,N,11748.1651,W,21.38,0.00,310119,,,*15
$PNAVA,,5.000000,*7F
$GPRMC,092121,A,3406.2723,N,11748.1651,W,21.38,0.00,310119,,,*14
$PNAVA,,5.000000,*7F
$GPRMC,092122,A,3406.2723,N,11748.1651,W,21.38,0.00,310119,,,*17
$PNAVA,,5.000000,*7F
$GPRMC,092123,A,3406.2723,N,11748.1651,W,21.38,0.00,310119,,,*16
$PNAVA,,5.000000,*7F
$GPRMC,092124,A,3406.2723,N,11748.1651,W,21.38,0.00,310119,,,*11
$PNAVA,,5.000000,*7F
$GPRMC,092125,A,3406.2723,N,11748.1651,W,21.38,0.00,310119,,,*10
$PNAVA,,5.000000,*7F
$GPRMC,092126,A,3406.2723,N,11748.1651,W,21.38,0.00,310119,,,*13
$PNAVA,,5.000000,*7F
$GPRMC,092127,A,3406.2723,N,11748.1651,W,21.38,0.00,310119,,,*12
$PNAVA,,5.000000,*7F
$GPRMC,092128,A,3406.2723,N,11748.1651,W,21.38,0.00,310119,,,*1D
$PNAVA,,5.000000,*7F
$GPRMC,092129,A,3406.2723,N,11748.1651,W,21.38,0.00,310119,,,*1C
$PNAVA,,5.000000,*7F
$GPRMC,092130,A,3406.2723,N,11748.1651,W,21.38,0.00,310119,,,*14
$PNAVA,,5.000000,*7F
$GPRMC,092131,A,3406.2723,N,11748.1651,W,21.38,0.00,310119,,,*15
$PNAVA,,5.000000,*7F
$GPRMC,092132,A,3406.2723,N,11748.1651,W,21.38,0.00,310119,,,*16
$PNAVA,,5.000000,*7F
$GPRMC,092133,A,3406.2723,N,11748.1651,W,21.38,0.00,310119,,,*17
$PNAVA,,5.000000,*7F
$GPRMC,092134,A,3406.2723,N,11748.1651,W,21.38,0.00,310119,,,*10
$PNAVA,,5.000000,*7F
$GPRMC,092135,A,3406.2723,N,11748.1651,W,21.38,0.00,310119,,,*11
$PNAVA,,5.000000,*7F
$GPRMC,092136,A,3406.2723,N,11748.1651,W,21.38,0.00,310119,,,*12
$PNAVA,,5.000000,*7F
$GPRMC,092137,A,3406.2723,N,11748.1651,W,21.38,0.00,310119,,,*13
$PNAVA,,5.000000,*7F
$GPRMC,092138,A,3406.2723,N,11748.1651,W,21.38,0.00,310119,,,*1C
$PNAVA,,5.000000,*7F
$GPRMC,092139,A,3406.2723,N,11748.1651,W,21.38,0.00,310119,,,*1D
$PNAVA,,5.000000,*7F
$GPRMC,092140,A,3406.2723,N,11748.1651,W,21.38,0.00,310119,,,*13
$PNAVA,,5.000000,*7F
$GPRMC,092141,A,3406.2723,N,11748.1651,W,21.38,0.00,310119,,,*12
$PNAVA,,5.000000,*7F
$GPRMC,092142,A,3406.2723,N,11748.1651,W,21.38,0.00,310119,,,*11
$PNAVA,,5.000000,*7F
$GPRMC,092144,A,3406.2723,N,11748.1651,W,21.38,0.00,310119,,,*17
$PNAVA,,5.000000,*7F
$GPRMC,092145,A,3406.2756,N,11748.1651,W,21.38,0.00,310119,,,*14
$PNAVA,,5.000000,*7F
$GPRMC,092146,A,3406.2817,N,11748.1651,W,21.38,0.00,310119,,,*1D
$PNAVA,,5.000000,*7F
$GPRMC,092147,A,3406.2873,N,11748.1651,W,21.38,0.00,310119,,,*1E
$PNAVA,,5.000000,*7F
$GPRMC,092148,A,3406.2934,N,11748.1651,W,21.38,0.00,310119,,,*13
$PNAVA,,5.000000,*7F
$GPRMC,092149,A,3406.2995,N,11748.1651,W,21.38,0.00,310119,,,*19
$PNAVA,,5.000000,*7F
$GPRMC,092150,A,3406.3051,N,11748.1651,W,21.38,0.00,310119,,,*11
$PNAVA,,5.000000,*7F
$GPRMC,092151,A,3406.3112,N,11748.1651,W,21.38,0.00,310119,,,*16
$PNAVA,,5.000000,*7F
$GPRMC,092152,A,3406.3173,N,11748.1651,W,21.38,0.00,310119,,,*12
$PNAVA,,5.000000,*7F
$GPRMC,092153,A,3406.3229,N,11748.1651,W,21.38,0.00,310119,,,*1F
$PNAVA,,5.000000,*7F
$GPRMC,092154,A,3406.3290,N,11748.1651,W,21.38,0.00,310119,,,*1A
$PNAVA,,5.000000,*7F
$GPRMC,092155,A,3406.3352,N,11748.1651,W,21.38,0.00,310119,,,*14
$PNAVA,,5.000000,*7F
$GPRMC,092156,A,3406.3407,N,11748.1651,W,21.38,0.00,310119,,,*10
$PNAVA,,5.000000,*7F
$GPRMC,092157,A,3406.3469,N,11748.1651,W,21.38,0.00,310119,,,*19
$PNAVA,,5.000000,*7F
$GPRMC,092158,A,3406.3530,N,11748.1651,W,21.38,0.00,310119,,,*1B
$PNAVA,,5.000000,*7F
$GPRMC,092159,A,3406.3586,N,11748.1651,W,21.38,0.00,310119,,,*17
$PNAVA,,5.000000,*7F
$GPRMC,092200,A,3406.3647,N,11748.1651,W,21.38,0.00,310119,,,*16
$PNAVA,,5.000000,*7F
$GPRMC,092201,A,3406.3708,N,11748.1651,W,21.38,0.00,310119,,,*1D
$PNAVA,,5.000000,*7F
$GPRMC,092202,A,3406.3764,N,11748.1651,W,21.38,0.00,310119,,,*14
$PNAVA,,5.000000,*7F
$GPRMC,092203,A,3406.3825,N,11748.1651,W,21.38,0.00,310119,,,*1F
$PNAVA,,5.000000,*7F
$GPRMC,092204,A,3406.3886,N,11748.1651,W,21.38,0.00,310119,,,*11
$PNAVA,,5.000000,*7F
$GPRMC,092205,A,3406.3942,N,11748.1651,W,21.38,0.00,310119,,,*19
$PNAVA,,5.000000,*7F
$GPRMC,092206,A,3406.4003,N,11748.1651,W,21.38,0.00,310119,,,*11
$PNAVA,,5.000000,*7F
$GPRMC,092207,A,3406.4004,N,11748.1817,W,48.60,270.00,310119,,,*1C
$PNAVA,,5.000000,*7F
$GPRMC,092208,A,3406.4004,N,11748.1969,W,48.60,270.00,310119,,,*1B
$PNAVA,,5.000000,*7F
$GPRMC,092209,A,3406.4004,N,11748.2137,W,48.60,270.00,310119,,,*1A
$PNAVA,,5.000000,*7F
$GPRMC,092210,A,3406.4004,N,11748.2290,W,48.60,270.00,310119,,,*1C
$PNAVA,,5.000000,*7F
$GPRMC,092211,A,3406.4004,N,11748.2290,W,48.60,270.00,310119,,,*1D
$PNAVA,,5.000000,*7F
$GPRMC,092212,A,3406.4004,N,11748.2290,W,48.60,270.00,310119,,,*1E
$PNAVA,,5.000000,*7F
$GPRMC,092213,A,3406.4004,N,11748.2290,W,48.60,270.00,310119,,,*1F
$PNAVA,,5.000000,*7F
$GPRMC,092214,A,3406.4004,N,11748.2290,W,48.60,270.00,310119,,,*18
$PNAVA,,5.000000,*7F
$GPRMC,092215,A,3406.4004,N,11748.2290,W,48.60,270.00,310119,,,*19
$PNAVA,,5.000000,*7F
$GPRMC,092216,A,3406.4004,N,11748.2290,W,48.60,270.00,310119,,,*1A
$PNAVA,,5.000000,*7F
$GPRMC,092217,A,3406.4004,N,11748.2290,W,48.60,270.00,310119,,,*1B
$PNAVA,,5.000000,*7F
$GPRMC,092218,A,3406.4004,N,11748.2290,W,48.60,270.00,310119,,,*14
$PNAVA,,5.000000,*7F
$GPRMC,092219,A,3406.4004,N,11748.2290,W,48.60,270.00,310119,,,*15
$PNAVA,,5.000000,*7F
$GPRMC,092220,A,3406.4004,N,11748.2290,W,48.60,270.00,310119,,,*1F
$PNAVA,,5.000000,*7F
$GPRMC,092221,A,3406.4004,N,11748.2290,W,48.60,270.00,310119,,,*1E
$PNAVA,,5.000000,*7F
$GPRMC,092222,A,3406.4004,N,11748.2290,W,48.60,270.00,310119,,,*1D
$PNAVA,,5.000000,*7F
$GPRMC,092223,A,3406.4004,N,11748.2290,W,48.60,270.00,310119,,,*1C
$PNAVA,,5.000000,*7F
$GPRMC,092224,A,3406.4004,N,11748.2290,W,48.60,270.00,310119,,,*1B
$PNAVA,,5.000000,*7F
$GPRMC,092225,A,3406.4004,N,11748.2290,W,48.60,270.00,310119,,,*1A
$PNAVA,,5.000000,*7F
$GPRMC,092226,A,3406.4004,N,11748.2290,W,48.60,270.00,310119,,,*19
$PNAVA,,5.000000,*7F
$GPRMC,092227,A,3406.4004,N,11748.2290,W,48.60,270.00,310119,,,*18
$PNAVA,,5.000000,*7F
$GPRMC,092228,A,3406.4004,N,11748.2290,W,48.60,270.00,310119,,,*17
$PNAVA,,5.000000,*7F
$GPRMC,092229,A,3406.4004,N,11748.2290,W,48.60,270.00,310119,,,*16
$PNAVA,,5.000000,*7F
$GPRMC,092230,A,3406.4004,N,11748.2290,W,48.60,270.00,310119,,,*1E
$PNAVA,,5.000000,*7F
$GPRMC,092231,A,3406.4004,N,11748.2290,W,48.60,270.00,310119,,,*1F
$PNAVA,,5.000000,*7F
$GPRMC,092232,A,3406.4004,N,11748.2290,W,48.60,270.00,310119,,,*1C
$PNAVA,,5.000000,*7F
$GPRMC,092233,A,3406.4004,N,11748.2290,W,48.60,270.00,310119,,,*1D
$PNAVA,,5.000000,*7F
$GPRMC,092234,A,3406.4004,N,11748.2290,W,48.60,270.00,310119,,,*1A
$PNAVA,,5.000000,*7F
$GPRMC,092235,A,3406.4004,N,11748.2290,W,48.60,270.00,310119,,,*1B
$PNAVA,,5.000000,*7F
$GPRMC,092236,A,3406.4004,N,11748.2290,W,48.60,270.00,310119,,,*18
$PNAVA,,5.000000,*7F
$GPRMC,092237,A,3406.4004,N,11748.2290,W,48.60,270.00,310119,,,*19
$PNAVA,,5.000000,*7F
$GPRMC,092238,A,3406.4004,N,11748.2290,W,48.60,270.00,310119,,,*16
$PNAVA,,5.000000,*7F
$GPRMC,092239,A,3406.4004,N,11748.2290,W,48.60,270.00,310119,,,*17
$PNAVA,,5.000000,*7F
$GPRMC,092240,A,3406.4004,N,11748.2290,W,48.60,270.00,310119,,,*19
$PNAVA,,5.000000,*7F
$GPRMC,092241,A,3406.4004,N,11748.2290,W,48.60,270.00,310119,,,*18
$PNAVA,,5.000000,*7F
$GPRMC,092242,A,3406.4004,N,11748.2290,W,48.60,270.00,310119,,,*1B
$PNAVA,,5.000000,*7F
$GPRMC,092243,A,3406.4004,N,11748.2290,W,48.60,270.00,310119,,,*1A
$PNAVA,,5.000000,*7F
$GPRMC,092244,A,3406.4004,N,11748.2290,W,48.60,270.00,310119,,,*1D
$PNAVA,,5.000000,*7F
$GPRMC,092245,A,3406.4004,N,11748.2290,W,48.60,270.00,310119,,,*1C
$PNAVA,,5.000000,*7F
$GPRMC,092246,A,3406.4004,N,11748.2290,W,48.60,270.00,310119,,,*1F
$PNAVA,,5.000000,*7F
$GPRMC,092247,A,3406.4004,N,11748.2290,W,48.60,270.00,310119,,,*1E
$PNAVA,,5.000000,*7F
$GPRMC,092248,A,3406.4004,N,11748.2290,W,48.60,270.00,310119,,,*11
$PNAVA,,5.000000,*7F
$GPRMC,092249,A,3406.4004,N,11748.2290,W,48.60,270.00,310119,,,*10
$PNAVA,,5.000000,*7F
$GPRMC,092250,A,3406.4004,N,11748.2290,W,48.60,270.00,310119,,,*18
$PNAVA,,5.000000,*7F
$GPRMC,092251,A,3406.4004,N,11748.2290,W,48.60,270.00,310119,,,*19
$PNAVA,,5.000000,*7F
$GPRMC,092252,A,3406.4004,N,11748.2290,W,48.60,270.00,310119,,,*1A
$PNAVA,,5.000000,*7F
$GPRMC,092253,A,3406.4004,N,11748.2290,W,48.60,270.00,310119,,,*1B
$PNAVA,,5.000000,*7F
$GPRMC,092254,A,3406.4004,N,11748.2290,W,48.60,270.00,310119,,,*1C
$PNAVA,,5.000000,*7F
$GPRMC,092255,A,3406.4004,N,11748.2290,W,48.60,270.00,310119,,,*1D
$PNAVA,,5.000000,*7F
$GPRMC,092256,A,3406.4004,N,11748.2290,W,48.60,270.00,310119,,,*1E
$PNAVA,,5.000000,*7F
$GPRMC,092257,A,3406.4004,N,11748.2290,W,48.60,270.00,310119,,,*1F
$PNAVA,,5.000000,*7F
$GPRMC,092258,A,3406.4004,N,11748.2290,W,48.60,270.00,310119,,,*10
$PNAVA,,5.000000,*7F
$GPRMC,092259,A,3406.4004,N,11748.2290,W,48.60,270.00,310119,,,*11
$PNAVA,,5.000000,*7F
$GPRMC,092300,A,3406.4004,N,11748.2290,W,48.60,270.00,310119,,,*1C
$PNAVA,,5.000000,*7F
$GPRMC,092301,A,3406.4004,N,11748.2290,W,48.60,270.00,310119,,,*1D
$PNAVA,,5.000000,*7F
$GPRMC,092302,A,3406.4004,N,11748.2290,W,48.60,270.00,310119,,,*1E
$PNAVA,,5.000000,*7F
$GPRMC,092303,A,3406.4004,N,11748.2290,W,48.60,270.00,310119,,,*1F
$PNAVA,,5.000000,*7F
$GPRMC,092304,A,3406.4004,N,11748.2290,W,48.60,270.00,310119,,,*18
$PNAVA,,5.000000,*7F
$GPRMC,092305,A,3406.4004,N,11748.2290,W,48.60,270.00,310119,,,*19
$PNAVA,,5.000000,*7F
$GPRMC,092306,A,3406.4004,N,11748.2290,W,48.60,270.00,310119,,,*1A
$PNAVA,,5.000000,*7F
$GPRMC,092307,A,3406.4004,N,11748.2290,W,48.60,270.00,310119,,,*1B
$PNAVA,,5.000000,*7F
$GPRMC,092308,A,3406.4004,N,11748.2290,W,48.60,270.00,310119,,,*14
$PNAVA,,5.000000,*7F
$GPRMC,092309,A,3406.4004,N,11748.2290,W,48.60,270.00,310119,,,*15
$PNAVA,,5.000000,*7F
$GPRMC,092310,A,3406.4004,N,11748.2290,W,48.60,270.00,310119,,,*1D
$PNAVA,,5.000000,*7F
$GPRMC,092311,A,3406.4004,N,11748.2290,W,48.60,270.00,310119,,,*1C
$PNAVA,,5.000000,*7F
$GPRMC,092312,A,3406.4004,N,11748.2290,W,48.60,270.00,310119,,,*1F
$PNAVA,,5.000000,*7F
$GPRMC,092313,A,3406.4004,N,11748.2290,W,48.60,270.00,310119,,,*1E
$PNAVA,,5.000000,*7F
$GPRMC,092314,A,3406.4004,N,11748.2290,W,48.60,270.00,310119,,,*19
$PNAVA,,5.000000,*7F
$GPRMC,092315,A,3406.4004,N,11748.2290,W,48.60,270.00,310119,,,*18
$PNAVA,,5.000000,*7F
$GPRMC,092316,A,3406.4004,N,11748.2290,W,48.60,270.00,310119,,,*1B
$PNAVA,,5.000000,*7F
$GPRMC,092317,A,3406.4004,N,11748.2290,W,48.60,270.00,310119,,,*1A
$PNAVA,,5.000000,*7F
$GPRMC,092318,A,3406.4004,N,11748.2290,W,48.60,270.00,310119,,,*15
$PNAVA,,5.000000,*7F
$GPRMC,092319,A,3406.4004,N,11748.2290,W,48.60,270.00,310119,,,*14
$PNAVA,,5.000000,*7F
$GPRMC,092320,A,3406.4004,N,11748.2290,W,48.60,270.00,310119,,,*1E
$PNAVA,,5.000000,*7F
$GPRMC,092321,A,3406.4004,N,11748.2290,W,48.60,270.00,310119,,,*1F
$PNAVA,,5.000000,*7F
$GPRMC,092322,A,3406.4004,N,11748.2290,W,48.60,270.00,310119,,,*1C
$PNAVA,,5.000000,*7F
$GPRMC,092323,A,3406.4004,N,11748.2290,W,48.60,270.00,310119,,,*1D
$PNAVA,,5.000000,*7F
$GPRMC,092324,A,3406.4004,N,11748.2290,W,48.60,270.00,310119,,,*1A
$PNAVA,,5.000000,*7F
$GPRMC,092325,A,3406.4004,N,11748.2290,W,48.60,270.00,310119,,,*1B
$PNAVA,,5.000000,*7F
$GPRMC,092326,A,3406.4004,N,11748.2290,W,48.60,270.00,310119,,,*18
$PNAVA,,5.000000,*7F
$GPRMC,092327,A,3406.4004,N,11748.2290,W,48.60,270.00,310119,,,*19
$PNAVA,,5.000000,*7F
$GPRMC,092328,A,3406.4004,N,11748.2290,W,48.60,270.00,310119,,,*16
$PNAVA,,5.000000,*7F
$GPRMC,092329,A,3406.4004,N,11748.2290,W,48.60,270.00,310119,,,*17
$PNAVA,,5.000000,*7F
$GPRMC,092330,A,3406.4004,N,11748.2290,W,48.60,270.00,310119,,,*1F
$PNAVA,,5.000000,*7F
$GPRMC,092331,A,3406.4004,N,11748.2290,W,48.60,270.00,310119,,,*1E
$PNAVA,,5.000000,*7F
$GPRMC,092332,A,3406.4004,N,11748.2290,W,48.60,270.00,310119,,,*1D
$PNAVA,,5.000000,*7F
$GPRMC,092333,A,3406.4004,N,11748.2290,W,48.60,270.00,310119,,,*1C
$PNAVA,,5.000000,*7F
$GPRMC,092334,A,3406.4004,N,11748.2290,W,48.60,270.00,310119,,,*1B
$PNAVA,,5.000000,*7F
$GPRMC,092335,A,3406.4004,N,11748.2290,W,48.60,270.00,310119,,,*1A
$PNAVA,,5.000000,*7F
$GPRMC,092336,A,3406.4004,N,11748.2290,W,48.60,270.00,310119,,,*19
$PNAVA,,5.000000,*7F
$GPRMC,092337,A,3406.4004,N,11748.2290,W,48.60,270.00,310119,,,*18
$PNAVA,,5.000000,*7F
$GPRMC,092338,A,3406.4004,N,11748.2290,W,48.60,270.00,310119,,,*17
$PNAVA,,5.000000,*7F
$GPRMC,092339,A,3406.4004,N,11748.2290,W,48.60,270.00,310119,,,*16
$PNAVA,,5.000000,*7F
$GPRMC,092340,A,3406.4004,N,11748.2290,W,48.60,270.00,310119,,,*18
$PNAVA,,5.000000,*7F
$GPRMC,092341,A,3406.4004,N,11748.2290,W,48.60,270.00,310119,,,*19
$PNAVA,,5.000000,*7F
$GPRMC,092342,A,3406.4004,N,11748.2290,W,48.60,270.00,310119,,,*1A
$PNAVA,,5.000000,*7F
$GPRMC,092343,A,3406.4004,N,11748.2290,W,48.60,270.00,310119,,,*1B
$PNAVA,,5.000000,*7F
$GPRMC,092344,A,3406.4004,N,11748.2290,W,48.60,270.00,310119,,,*1C
$PNAVA,,5.000000,*7F
$GPRMC,092345,A,3406.4004,N,11748.2290,W,48.60,270.00,310119,,,*1D
$PNAVA,,5.000000,*7F
$GPRMC,092346,A,3406.4004,N,11748.2290,W,48.60,270.00,310119,,,*1E
$PNAVA,,5.000000,*7F
$GPRMC,092347,A,3406.4004,N,11748.2290,W,48.60,270.00,310119,,,*1F
$PNAVA,,5.000000,*7F
$GPRMC,092348,A,3406.4004,N,11748.2290,W,48.60,270.00,310119,,,*10
$PNAVA,,5.000000,*7F
$GPRMC,092349,A,3406.4004,N,11748.2290,W,48.60,270.00,310119,,,*11
$PNAVA,,5.000000,*7F
$GPRMC,092350,A,3406.4004,N,11748.2290,W,48.60,270.00,310119,,,*19
$PNAVA,,5.000000,*7F
$GPRMC,092351,A,3406.4004,N,11748.2290,W,48.60,270.00,310119,,,*18
$PNAVA,,5.000000,*7F
$GPRMC,092352,A,3406.4004,N,11748.2290,W,48.60,270.00,310119,,,*1B
$PNAVA,,5.000000,*7F
$GPRMC,092353,A,3406.4004,N,11748.2290,W,48.60,270.00,310119,,,*1A
$PNAVA,,5.000000,*7F
$GPRMC,092354,A,3406.4004,N,11748.2290,W,48.60,270.00,310119,,,*1D
$PNAVA,,5.000000,*7F
$GPRMC,092355,A,3406.4004,N,11748.2290,W,48.60,270.00,310119,,,*1C
$PNAVA,,5.000000,*7F
$GPRMC,092356,A,3406.4004,N,11748.2290,W,48.60,270.00,310119,,,*1F
$PNAVA,,5.000000,*7F
$GPRMC,092357,A,3406.4004,N,11748.2290,W,48.60,270.00,310119,,,*1E
$PNAVA,,5.000000,*7F
$GPRMC,092358,A,3406.4004,N,11748.2290,W,48.60,270.00,310119,,,*11
$PNAVA,,5.000000,*7F
$GPRMC,092359,A,3406.4004,N,11748.2290,W,48.60,270.00,310119,,,*10
$PNAVA,,5.000000,*7F
$GPRMC,092400,A,3406.4004,N,11748.2290,W,48.60,270.00,310119,,,*1B
$PNAVA,,5.000000,*7F
$GPRMC,092401,A,3406.4004,N,11748.2290,W,48.60,270.00,310119,,,*1A
$PNAVA,,5.000000,*7F
$GPRMC,092402,A,3406.4004,N,11748.2290,W,48.60,270.00,310119,,,*19
$PNAVA,,5.000000,*7F
$GPRMC,092403,A,3406.4004,N,11748.2290,W,48.60,270.00,310119,,,*18
$PNAVA,,5.000000,*7F
$GPRMC,092404,A,3406.4004,N,11748.2290,W,48.60,270.00,310119,,,*1F
$PNAVA,,5.000000,*7F
$GPRMC,092405,A,3406.4004,N,11748.2290,W,48.60,270.00,310119,,,*1E
$PNAVA,,5.000000,*7F
$GPRMC,092406,A,3406.4004,N,11748.2290,W,48.60,270.00,310119,,,*1D
$PNAVA,,5.000000,*7F
$GPRMC,092407,A,3406.4004,N,11748.2290,W,48.60,270.00,310119,,,*1C
$PNAVA,,5.000000,*7F
$GPRMC,092408,A,3406.4004,N,11748.2290,W,48.60,270.00,310119,,,*13
$PNAVA,,5.000000,*7F
$GPRMC,092409,A,3406.4004,N,11748.2290,W,48.60,270.00,310119,,,*12
$PNAVA,,5.000000,*7F
$GPRMC,092410,A,3406.4004,N,11748.2290,W,48.60,270.00,310119,,,*1A
$PNAVA,,5.000000,*7F
$GPRMC,092411,A,3406.4004,N,11748.2290,W,48.60,270.00,310119,,,*1B
$PNAVA,,5.000000,*7F
$GPRMC,092412,A,3406.4004,N,11748.2290,W,48.60,270.00,310119,,,*18
$PNAVA,,5.000000,*7F
$GPRMC,092413,A,3406.4004,N,11748.2290,W,48.60,270.00,310119,,,*19
$PNAVA,,5.000000,*7F
$GPRMC,092414,A,3406.4004,N,11748.2290,W,48.60,270.00,310119,,,*1E
$PNAVA,,5.000000,*7F
$GPRMC,092415,A,3406.4004,N,11748.2290,W,48.60,270.00,310119,,,*1F
$PNAVA,,5.000000,*7F
$GPRMC,092416,A,3406.4004,N,11748.2290,W,48.60,270.00,310119,,,*1C
$PNAVA,,5.000000,*7F
$GPRMC,092417,A,3406.4004,N,11748.2290,W,48.60,270.00,310119,,,*1D
$PNAVA,,5.000000,*7F
$GPRMC,092418,A,3406.4004,N,11748.2290,W,48.60,270.00,310119,,,*12
$PNAVA,,5.000000,*7F
$GPRMC,092419,A,3406.4004,N,11748.2290,W,48.60,270.00,310119,,,*13
$PNAVA,,5.000000,*7F
$GPRMC,092420,A,3406.4004,N,11748.2290,W,48.60,270.00,310119,,,*19
$PNAVA,,5.000000,*7F
$GPRMC,092421,A,3406.4004,N,11748.2290,W,48.60,270.00,310119,,,*18
$PNAVA,,5.000000,*7F
$GPRMC,092422,A,3406.4004,N,11748.2290,W,48.60,270.00,310119,,,*1B
$PNAVA,,5.000000,*7F
$GPRMC,092423,A,3406.4004,N,11748.2290,W,48.60,270.00,310119,,,*1A
$PNAVA,,5.000000,*7F
$GPRMC,092424,A,3406.4004,N,11748.2290,W,48.60,270.00,310119,,,*1D
$PNAVA,,5.000000,*7F
$GPRMC,092425,A,3406.4004,N,11748.2290,W,48.60,270.00,310119,,,*1C
$PNAVA,,5.000000,*7F
$GPRMC,092426,A,3406.4004,N,11748.2290,W,48.60,270.00,310119,,,*1F
$PNAVA,,5.000000,*7F
$GPRMC,092427,A,3406.4004,N,11748.2290,W,48.60,270.00,310119,,,*1E
$PNAVA,,5.000000,*7F
$GPRMC,092428,A,3406.4004,N,11748.2290,W,48.60,270.00,310119,,,*11
$PNAVA,,5.000000,*7F
$GPRMC,092429,A,3406.4004,N,11748.2290,W,48.60,270.00,310119,,,*10
$PNAVA,,5.000000,*7F
$GPRMC,092430,A,3406.4004,N,11748.2290,W,48.60,270.00,310119,,,*18
$PNAVA,,5.000000,*7F
$GPRMC,092431,A,3406.4004,N,11748.2290,W,48.60,270.00,310119,,,*19
$PNAVA,,5.000000,*7F
$GPRMC,092432,A,3406.4004,N,11748.2290,W,48.60,270.00,310119,,,*1A
$PNAVA,,5.000000,*7F
$GPRMC,092433,A,3406.4004,N,11748.2290,W,48.60,270.00,310119,,,*1B
$PNAVA,,5.000000,*7F
$GPRMC,092434,A,3406.4004,N,11748.2290,W,48.60,270.00,310119,,,*1C
$PNAVA,,5.000000,*7F
$GPRMC,092435,A,3406.4004,N,11748.2290,W,48.60,270.00,310119,,,*1D
$PNAVA,,5.000000,*7F
$GPRMC,092436,A,3406.4004,N,11748.2290,W,48.60,270.00,310119,,,*1E
$PNAVA,,5.000000,*7F
$GPRMC,092437,A,3406.4004,N,11748.2290,W,48.60,270.00,310119,,,*1F
$PNAVA,,5.000000,*7F
$GPRMC,092438,A,3406.4004,N,11748.2290,W,48.60,270.00,310119,,,*10
$PNAVA,,5.000000,*7F
$GPRMC,092439,A,3406.4004,N,11748.2290,W,48.60,270.00,310119,,,*11
$PNAVA,,5.000000,*7F
$GPRMC,092440,A,3406.4004,N,11748.2290,W,48.60,270.00,310119,,,*1F
$PNAVA,,5.000000,*7F
$GPRMC,092441,A,3406.4004,N,11748.2290,W,48.60,270.00,310119,,,*1E
$PNAVA,,5.000000,*7F
$GPRMC,092442,A,3406.4004,N,11748.2290,W,48.60,270.00,310119,,,*1D
$PNAVA,,5.000000,*7F
$GPRMC,092443,A,3406.4004,N,11748.2290,W,48.60,270.00,310119,,,*1C
$PNAVA,,5.000000,*7F
$GPRMC,092444,A,3406.4004,N,11748.2290,W,48.60,270.00,310119,,,*1B
$PNAVA,,5.000000,*7F
$GPRMC,092445,A,3406.4004,N,11748.2290,W,48.60,270.00,310119,,,*1A
$PNAVA,,5.000000,*7F
$GPRMC,092446,A,3406.4004,N,11748.2290,W,48.60,270.00,310119,,,*19
$PNAVA,,5.000000,*7F
$GPRMC,092447,A,3406.4004,N,11748.2290,W,48.60,270.00,310119,,,*18
$PNAVA,,5.000000,*7F
$GPRMC,092448,A,3406.4004,N,11748.2290,W,48.60,270.00,310119,,,*17
$PNAVA,,5.000000,*7F
$GPRMC,092449,A,3406.4004,N,11748.2290,W,48.60,270.00,310119,,,*16
$PNAVA,,5.000000,*7F
$GPRMC,092450,A,3406.4004,N,11748.2290,W,48.60,270.00,310119,,,*1E
$PNAVA,,5.000000,*7F
$GPRMC,092451,A,3406.4004,N,11748.2290,W,48.60,270.00,310119,,,*1F
$PNAVA,,5.000000,*7F
$GPRMC,092452,A,3406.4004,N,11748.2290,W,48.60,270.00,310119,,,*1C
$PNAVA,,5.000000,*7F
$GPRMC,092453,A,3406.4004,N,11748.2290,W,48.60,270.00,310119,,,*1D
$PNAVA,,5.000000,*7F
$GPRMC,092454,A,3406.4004,N,11748.2290,W,48.60,270.00,310119,,,*1A
$PNAVA,,5.000000,*7F
$GPRMC,092455,A,3406.4004,N,11748.2290,W,48.60,270.00,310119,,,*1B
$PNAVA,,5.000000,*7F
$GPRMC,092456,A,3406.4004,N,11748.2290,W,48.60,270.00,310119,,,*18
$PNAVA,,5.000000,*7F
$GPRMC,092457,A,3406.4004,N,11748.2290,W,48.60,270.00,310119,,,*19
$PNAVA,,5.000000,*7F
$GPRMC,092458,A,3406.4004,N,11748.2290,W,48.60,270.00,310119,,,*16
$PNAVA,,5.000000,*7F
$GPRMC,092459,A,3406.4004,N,11748.2290,W,48.60,270.00,310119,,,*17
$PNAVA,,5.000000,*7F
$GPRMC,092500,A,3406.4004,N,11748.2290,W,48.60,270.00,310119,,,*1A
$PNAVA,,5.000000,*7F
$GPRMC,092501,A,3406.4004,N,11748.2290,W,48.60,270.00,310119,,,*1B
$PNAVA,,5.000000,*7F
$GPRMC,092502,A,3406.4004,N,11748.2290,W,48.60,270.00,310119,,,*18
$PNAVA,,5.000000,*7F
$GPRMC,092503,A,3406.4004,N,11748.2290,W,48.60,270.00,310119,,,*19
$PNAVA,,5.000000,*7F
$GPRMC,092504,A,3406.4004,N,11748.2290,W,48.60,270.00,310119,,,*1E
$PNAVA,,5.000000,*7F
$GPRMC,092505,A,3406.4004,N,11748.2290,W,48.60,270.00,310119,,,*1F
$PNAVA,,5.000000,*7F
$GPRMC,092506,A,3406.4004,N,11748.2290,W,48.60,270.00,310119,,,*1C
$PNAVA,,5.000000,*7F
$GPRMC,092507,A,3406.4004,N,11748.2290,W,48.60,270.00,310119,,,*1D
$PNAVA,,5.000000,*7F
$GPRMC,092508,A,3406.4004,N,11748.2290,W,48.60,270.00,310119,,,*12
$PNAVA,,5.000000,*7F
$GPRMC,092509,A,3406.4004,N,11748.2290,W,48.60,270.00,310119,,,*13
$PNAVA,,5.000000,*7F
$GPRMC,092510,A,3406.4004,N,11748.2290,W,48.60,270.00,310119,,,*1B
$PNAVA,,5.000000,*7F
$GPRMC,092511,A,3406.4004,N,11748.2290,W,48.60,270.00,310119,,,*1A
$PNAVA,,5.000000,*7F
$GPRMC,092512,A,3406.4004,N,11748.2290,W,48.60,270.00,310119,,,*19
$PNAVA,,5.000000,*7F
$GPRMC,092513,A,3406.4004,N,11748.2290,W,48.60,270.00,310119,,,*18
$PNAVA,,5.000000,*7F
$GPRMC,092514,A,3406.4004,N,11748.2290,W,48.60,270.00,310119,,,*1F
$PNAVA,,5.000000,*7F
$GPRMC,092515,A,3406.4004,N,11748.2290,W,48.60,270.00,310119,,,*1E
$PNAVA,,5.000000,*7F
$GPRMC,092516,A,3406.4004,N,11748.2290,W,48.60,270.00,310119,,,*1D
$PNAVA,,5.000000,*7F
$GPRMC,092517,A,3406.4004,N,11748.2290,W,48.60,270.00,310119,,,*1C
$PNAVA,,5.000000,*7F
$GPRMC,092518,A,3406.4004,N,11748.2290,W,48.60,270.00,310119,,,*13
$PNAVA,,5.000000,*7F
$GPRMC,092519,A,3406.4004,N,11748.2290,W,48.60,270.00,310119,,,*12
$PNAVA,,5.000000,*7F
$GPRMC,092520,A,3406.4004,N,11748.2290,W,48.60,270.00,310119,,,*18
$PNAVA,,5.000000,*7F
$GPRMC,092521,A,3406.4004,N,11748.2290,W,48.60,270.00,310119,,,*19
$PNAVA,,5.000000,*7F
$GPRMC,092522,A,3406.4004,N,11748.2290,W,48.60,270.00,310119,,,*1A
$PNAVA,,5.000000,*7F
$GPRMC,092523,A,3406.4004,N,11748.2290,W,48.60,270.00,310119,,,*1B
$PNAVA,,5.000000,*7F
$GPRMC,092524,A,3406.4004,N,11748.2290,W,48.60,270.00,310119,,,*1C
$PNAVA,,5.000000,*7F
$GPRMC,092525,A,3406.4004,N,11748.2290,W,48.60,270.00,310119,,,*1D
$PNAVA,,5.000000,*7F
$GPRMC,092526,A,3406.4004,N,11748.2290,W,48.60,270.00,310119,,,*1E
$PNAVA,,5.000000,*7F
$GPRMC,092527,A,3406.4004,N,11748.2290,W,48.60,270.00,310119,,,*1F
$PNAVA,,5.000000,*7F
$GPRMC,092528,A,3406.4004,N,11748.2290,W,48.60,270.00,310119,,,*10
$PNAVA,,5.000000,*7F
$GPRMC,092529,A,3406.4004,N,11748.2290,W,48.60,270.00,310119,,,*11
$PNAVA,,5.000000,*7F
$GPRMC,092530,A,3406.4004,N,11748.2290,W,48.60,270.00,310119,,,*19
$PNAVA,,5.000000,*7F
$GPRMC,092531,A,3406.4004,N,11748.2290,W,48.60,270.00,310119,,,*18
$PNAVA,,5.000000,*7F
$GPRMC,092532,A,3406.4004,N,11748.2290,W,48.60,270.00,310119,,,*1B
$PNAVA,,5.000000,*7F
$GPRMC,092533,A,3406.4004,N,11748.2290,W,48.60,270.00,310119,,,*1A
$PNAVA,,5.000000,*7F
$GPRMC,092534,A,3406.4004,N,11748.2290,W,48.60,270.00,310119,,,*1D
$PNAVA,,5.000000,*7F
$GPRMC,092535,A,3406.4004,N,11748.2290,W,48.60,270.00,310119,,,*1C
$PNAVA,,5.000000,*7F
