$PNAVA,,5.000000,*7F
$GPRMC,100001,A,3307.1884,N,09409.0469,W,42.76,11.00,220915,,,*24
$PNAVA,,5.000000,*7F
$GPRMC,100002,A,3307.2005,N,09409.0449,W,42.76,5.00,220915,,,*12
$PNAVA,,5.000000,*7F
$GPRMC,100003,A,3307.2128,N,09409.0442,W,42.76,0.00,220915,,,*13
$PNAVA,,5.000000,*7F
$GPRMC,100004,A,3307.2251,N,09409.0442,W,42.76,0.00,220915,,,*19
$PNAVA,,5.000000,*7F
$GPRMC,100005,A,3307.2364,N,09409.0442,W,42.76,0.00,220915,,,*1F
$PNAVA,,5.000000,*7F
$GPRMC,100006,A,3307.2490,N,09409.0442,W,42.76,0.00,220915,,,*10
$PNAVA,,5.000000,*7F
$GPRMC,100007,A,3307.2611,N,09409.0442,W,42.76,0.00,220915,,,*1A
$PNAVA,,5.000000,*7F
$GPRMC,100008,A,3307.2734,N,09409.0442,W,42.76,0.00,220915,,,*13
$PNAVA,,5.000000,*7F
$GPRMC,100009,A,3307.2858,N,09409.0442,W,42.76,0.00,220915,,,*17
$PNAVA,,5.000000,*7F
$GPRMC,100010,A,3307.2982,N,09409.0437,W,42.76,3.00,220915,,,*18
$PNAVA,,5.000000,*7F
$GPRMC,100011,A,3307.3094,N,09409.0431,W,42.76,3.00,220915,,,*10
$PNAVA,,5.000000,*7F
$GPRMC,100012,A,3307.3217,N,09409.0425,W,42.76,3.00,220915,,,*1F
$PNAVA,,5.000000,*7F
$GPRMC,100013,A,3307.3343,N,09409.0418,W,42.76,3.00,220915,,,*10
$PNAVA,,5.000000,*7F
$GPRMC,100014,A,3307.3465,N,09409.0406,W,42.76,7.00,220915,,,*1F
$PNAVA,,5.000000,*7F
$GPRMC,100015,A,3307.3587,N,09409.0388,W,42.76,7.00,220915,,,*12
$PNAVA,,5.000000,*7F
$GPRMC,100016,A,3307.3709,N,09409.0368,W,42.76,13.00,220915,,,*2E
$PNAVA,,5.000000,*7F
$GPRMC,100017,A,3307.3819,N,09409.0338,W,42.76,13.00,220915,,,*24
$PNAVA,,5.000000,*7F
$GPRMC,100018,A,3307.3936,N,09409.0290,W,42.76,21.00,220915,,,*25
$PNAVA,,5.000000,*7F
$GPRMC,100019,A,3307.4052,N,09409.0235,W,42.76,21.00,220915,,,*27
$PNAVA,,5.000000,*7F
$GPRMC,100020,A,3307.4166,N,09409.0182,W,42.76,21.00,220915,,,*24
$PNAVA,,5.000000,*7F
$GPRMC,100021,A,3307.4166,N,09409.0268,W,31.10,257.00,220915,,,*15
$PNAVA,,5.000000,*7F
$GPRMC,100022,A,3307.4145,N,09409.0376,W,31.10,257.00,220915,,,*19
$PNAVA,,5.000000,*7F
$GPRMC,100023,A,3307.4126,N,09409.0473,W,31.10,257.00,220915,,,*1F
$PNAVA,,5.000000,*7F
$GPRMC,100024,A,3307.4105,N,09409.0583,W,31.10,257.00,220915,,,*17
$PNAVA,,5.000000,*7F
$GPRMC,100025,A,3307.4084,N,09409.0689,W,31.10,257.00,220915,,,*17
$PNAVA,,5.000000,*7F
$GPRMC,100026,A,3307.4063,N,09409.0799,W,31.10,257.00,220915,,,*1D
$PNAVA,,5.000000,*7F
$GPRMC,100027,A,3307.4043,N,09409.0905,W,31.10,257.00,220915,,,*15
$PNAVA,,5.000000,*7F
$GPRMC,100028,A,3307.4022,N,09409.1013,W,31.10,257.00,220915,,,*12
$PNAVA,,5.000000,*7F
$GPRMC,100029,A,3307.4003,N,09409.1111,W,31.10,257.00,220915,,,*13
$PNAVA,,5.000000,*7F
$GPRMC,100030,A,3307.3982,N,09409.1219,W,31.10,257.00,220915,,,*17
$PNAVA,,5.000000,*7F
$GPRMC,100031,A,3307.3961,N,09409.1326,W,31.10,257.00,220915,,,*16
$PNAVA,,5.000000,*7F
$GPRMC,100032,A,3307.3940,N,09409.1436,W,31.10,257.00,220915,,,*10
$PNAVA,,5.000000,*7F
$GPRMC,100033,A,3307.3920,N,09409.1542,W,31.10,257.00,220915,,,*15
$PNAVA,,5.000000,*7F
$GPRMC,100034,A,3307.3899,N,09409.1649,W,31.10,257.00,220915,,,*19
$PNAVA,,5.000000,*7F
$GPRMC,100035,A,3307.3876,N,09409.1760,W,31.10,256.00,220915,,,*12
$PNAVA,,5.000000,*7F
$GPRMC,100036,A,3307.3854,N,09409.1868,W,31.10,256.00,220915,,,*16
$PNAVA,,5.000000,*7F
$GPRMC,100037,A,3307.3832,N,09409.1976,W,31.10,256.00,220915,,,*19
$PNAVA,,5.000000,*7F
$GPRMC,100038,A,3307.3810,N,09409.2085,W,31.10,256.00,220915,,,*10
$PNAVA,,5.000000,*7F
$GPRMC,100039,A,3307.3787,N,09409.2192,W,31.10,256.00,220915,,,*17
$PNAVA,,5.000000,*7F
$GPRMC,100040,A,3307.3763,N,09409.2299,W,31.10,255.00,220915,,,*18
$PNAVA,,5.000000,*7F
$GPRMC,100041,A,3307.3741,N,09409.2396,W,31.10,255.00,220915,,,*17
$PNAVA,,5.000000,*7F
$GPRMC,100042,A,3307.3720,N,09409.2506,W,31.10,258.00,220915,,,*11
$PNAVA,,5.000000,*7F
$GPRMC,100043,A,3307.3700,N,09409.2612,W,31.10,258.00,220915,,,*14
$PNAVA,,5.000000,*7F
$GPRMC,100044,A,3307.3680,N,09409.2722,W,31.10,258.00,220915,,,*18
$PNAVA,,5.000000,*7F
$GPRMC,100045,A,3307.3661,N,09409.2828,W,31.10,258.00,220915,,,*13
$PNAVA,,5.000000,*7F
$GPRMC,100046,A,3307.3641,N,09409.2936,W,31.10,258.00,220915,,,*1C
$PNAVA,,5.000000,*7F
$GPRMC,100047,A,3307.3623,N,09409.3035,W,31.10,258.00,220915,,,*12
$PNAVA,,5.000000,*7F
$GPRMC,100048,A,3307.3604,N,09409.3143,W,31.10,258.00,220915,,,*18
$PNAVA,,5.000000,*7F
$GPRMC,100049,A,3307.3584,N,09409.3251,W,31.10,258.00,220915,,,*12
$PNAVA,,5.000000,*7F
$GPRMC,100050,A,3307.3563,N,09409.3361,W,31.10,257.00,220915,,,*1E
$PNAVA,,5.000000,*7F
$GPRMC,100051,A,3307.3537,N,09409.3464,W,31.10,251.00,220915,,,*1A
$PNAVA,,5.000000,*7F
$GPRMC,100052,A,3307.3507,N,09409.3569,W,31.10,251.00,220915,,,*16
$PNAVA,,5.000000,*7F
$GPRMC,100053,A,3307.3480,N,09409.3665,W,31.10,251.00,220915,,,*16
$PNAVA,,5.000000,*7F
$GPRMC,100054,A,3307.3451,N,09409.3770,W,31.10,251.00,220915,,,*18
$PNAVA,,5.000000,*7F
$GPRMC,100055,A,3307.3421,N,09409.3876,W,31.10,251.00,220915,,,*17
$PNAVA,,5.000000,*7F
$GPRMC,100056,A,3307.3391,N,09409.3980,W,31.10,251.00,220915,,,*10
$PNAVA,,5.000000,*7F
$GPRMC,100057,A,3307.3361,N,09409.4086,W,31.10,247.00,220915,,,*11
$PNAVA,,5.000000,*7F
$GPRMC,100058,A,3307.3325,N,09409.4186,W,31.10,247.00,220915,,,*1F
$PNAVA,,5.000000,*7F
$GPRMC,100059,A,3307.3292,N,09409.4279,W,31.10,247.00,220915,,,*10
$PNAVA,,5.000000,*7F
$GPRMC,100100,A,3307.3256,N,09409.4382,W,31.10,247.00,220915,,,*10
$PNAVA,,5.000000,*7F
$GPRMC,100101,A,3307.3220,N,09409.4483,W,31.10,247.00,220915,,,*16
$PNAVA,,5.000000,*7F
$GPRMC,100102,A,3307.3184,N,09409.4585,W,31.10,247.00,220915,,,*1F
$PNAVA,,5.000000,*7F
$GPRMC,100103,A,3307.3148,N,09409.4688,W,31.10,247.00,220915,,,*10
$PNAVA,,5.000000,*7F
$GPRMC,100104,A,3307.3112,N,09409.4788,W,31.10,247.00,220915,,,*19
$PNAVA,,5.000000,*7F
$GPRMC,100105,A,3307.3079,N,09409.4880,W,31.10,246.00,220915,,,*12
$PNAVA,,5.000000,*7F
$GPRMC,100106,A,3307.3041,N,09409.4982,W,31.10,246.00,220915,,,*19
$PNAVA,,5.000000,*7F
$GPRMC,100107,A,3307.3004,N,09409.5083,W,31.10,246.00,220915,,,*10
$PNAVA,,5.000000,*7F
$GPRMC,100108,A,3307.2966,N,09409.5184,W,31.10,246.00,220915,,,*15
$PNAVA,,5.000000,*7F
$GPRMC,100109,A,3307.2928,N,09409.5287,W,31.10,246.00,220915,,,*1E
$PNAVA,,5.000000,*7F
$GPRMC,100110,A,3307.2891,N,09409.5386,W,31.10,246.00,220915,,,*15
$PNAVA,,5.000000,*7F
$GPRMC,100111,A,3307.2857,N,09409.5479,W,31.10,246.00,220915,,,*19
$PNAVA,,5.000000,*7F
$GPRMC,100113,A,3307.2819,N,09409.5579,W,31.10,246.00,220915,,,*10
$PNAVA,,5.000000,*7F
$GPRMC,100114,A,3307.2781,N,09409.5682,W,31.10,246.00,220915,,,*1E
$PNAVA,,5.000000,*7F
$GPRMC,100115,A,3307.2745,N,09409.5782,W,31.10,247.00,220915,,,*17
$PNAVA,,5.000000,*7F
$GPRMC,100116,A,3307.2707,N,09409.5885,W,31.10,247.00,220915,,,*1A
$PNAVA,,5.000000,*7F
$GPRMC,100117,A,3307.2671,N,09409.5985,W,31.10,247.00,220915,,,*1A
$PNAVA,,5.000000,*7F
$GPRMC,100118,A,3307.2638,N,09409.6077,W,31.10,247.00,220915,,,*1F
$PNAVA,,5.000000,*7F
$GPRMC,100119,A,3307.2602,N,09409.6179,W,31.10,247.00,220915,,,*18
$PNAVA,,5.000000,*7F
$GPRMC,100120,A,3307.2565,N,09409.6283,W,31.10,247.00,220915,,,*16
$PNAVA,,5.000000,*7F
$GPRMC,100121,A,3307.2529,N,09409.6383,W,31.10,247.00,220915,,,*1E
$PNAVA,,5.000000,*7F
$GPRMC,100122,A,3307.2492,N,09409.6486,W,31.10,247.00,220915,,,*1E
$PNAVA,,5.000000,*7F
$GPRMC,100123,A,3307.2456,N,09409.6586,W,31.10,247.00,220915,,,*16
$PNAVA,,5.000000,*7F
$GPRMC,100124,A,3307.2406,N,09409.6719,W,31.10,245.00,220915,,,*12
$PNAVA,,5.000000,*7F
$GPRMC,100125,A,3307.2368,N,09409.6820,W,31.10,245.00,220915,,,*19
$PNAVA,,5.000000,*7F
$GPRMC,100126,A,3307.2326,N,09409.6921,W,31.10,243.00,220915,,,*16
$PNAVA,,5.000000,*7F
$GPRMC,100127,A,3307.2283,N,09409.7016,W,31.10,233.00,220915,,,*12
$PNAVA,,5.000000,*7F
$GPRMC,100128,A,3307.2226,N,09409.7107,W,31.10,233.00,220915,,,*13
$PNAVA,,5.000000,*7F
$GPRMC,100129,A,3307.2172,N,09409.7194,W,31.10,233.00,220915,,,*1A
$PNAVA,,5.000000,*7F
$GPRMC,100130,A,3307.2115,N,09409.7268,W,31.10,224.00,220915,,,*15
$PNAVA,,5.000000,*7F
$GPRMC,100131,A,3307.2049,N,09409.7345,W,31.10,224.00,220915,,,*12
$PNAVA,,5.000000,*7F
$GPRMC,100132,A,3307.1981,N,09409.7423,W,31.10,224.00,220915,,,*18
$PNAVA,,5.000000,*7F
$GPRMC,100133,A,3307.1908,N,09409.7488,W,31.10,212.00,220915,,,*1C
$PNAVA,,5.000000,*7F
$GPRMC,100134,A,3307.1829,N,09409.7548,W,31.10,212.00,220915,,,*14
$PNAVA,,5.000000,*7F
$GPRMC,100135,A,3307.1752,N,09409.7607,W,31.10,212.00,220915,,,*1E
$PNAVA,,5.000000,*7F
$GPRMC,100136,A,3307.1679,N,09409.7656,W,31.10,201.00,220915,,,*13
$PNAVA,,5.000000,*7F
$GPRMC,100137,A,3307.1593,N,09409.7697,W,31.10,201.00,220915,,,*18
$PNAVA,,5.000000,*7F
$GPRMC,100138,A,3307.1504,N,09409.7736,W,31.10,200.00,220915,,,*12
$PNAVA,,5.000000,*7F
$GPRMC,100139,A,3307.1419,N,09409.7773,W,31.10,200.00,220915,,,*1F
$PNAVA,,5.000000,*7F
$GPRMC,100140,A,3307.1330,N,09409.7811,W,31.10,200.00,220915,,,*16
$PNAVA,,5.000000,*7F
$GPRMC,100141,A,3307.1245,N,09409.7849,W,31.10,200.00,220915,,,*19
$PNAVA,,5.000000,*7F
$GPRMC,100142,A,3307.1165,N,09409.7883,W,31.10,200.00,220915,,,*1D
$PNAVA,,5.000000,*7F
$GPRMC,100143,A,3307.1071,N,09409.7920,W,31.10,198.00,220915,,,*12
$PNAVA,,5.000000,*7F
$GPRMC,100144,A,3307.0984,N,09409.7953,W,31.10,198.00,220915,,,*13
$PNAVA,,5.000000,*7F
$GPRMC,100145,A,3307.0896,N,09409.7987,W,31.10,198.00,220915,,,*19
$PNAVA,,5.000000,*7F
$GPRMC,100146,A,3307.0807,N,09409.8021,W,31.10,198.00,220915,,,*18
$PNAVA,,5.000000,*7F
$GPRMC,100147,A,3307.0720,N,09409.8055,W,31.10,198.00,220915,,,*10
$PNAVA,,5.000000,*7F
$GPRMC,100148,A,3307.0639,N,09409.8086,W,31.10,198.00,220915,,,*18
$PNAVA,,5.000000,*7F
$GPRMC,100149,A,3307.0550,N,09409.8116,W,31.10,194.00,220915,,,*11
$PNAVA,,5.000000,*7F
$GPRMC,100150,A,3307.0460,N,09409.8143,W,31.10,194.00,220915,,,*1B
$PNAVA,,5.000000,*7F
$GPRMC,100151,A,3307.0370,N,09409.8170,W,31.10,189.00,220915,,,*10
$PNAVA,,5.000000,*7F
$GPRMC,100152,A,3307.0278,N,09409.8188,W,31.10,189.00,220915,,,*1D
$PNAVA,,5.000000,*7F
$GPRMC,100153,A,3307.0187,N,09409.8205,W,31.10,189.00,220915,,,*19
$PNAVA,,5.000000,*7F
$GPRMC,100154,A,3307.0103,N,09409.8222,W,31.10,189.00,220915,,,*17
$PNAVA,,5.000000,*7F
$GPRMC,100155,A,3307.0064,N,09409.8228,W,9.72,188.00,220915,,,*22
$PNAVA,,5.000000,*7F
$GPRMC,100156,A,3307.0033,N,09409.8234,W,9.72,188.00,220915,,,*2E
$PNAVA,,5.000000,*7F
$GPRMC,100157,A,3307.0003,N,09409.8239,W,9.72,179.00,220915,,,*2F
$PNAVA,,5.000000,*7F
$GPRMC,100158,A,3306.9972,N,09409.8238,W,9.72,179.00,220915,,,*26
$PNAVA,,5.000000,*7F
$GPRMC,100159,A,3306.9941,N,09409.8237,W,9.72,179.00,220915,,,*28
$PNAVA,,5.000000,*7F
$GPRMC,100200,A,3306.9913,N,09409.8237,W,9.72,179.00,220915,,,*20
$PNAVA,,5.000000,*7F
$GPRMC,100201,A,3306.9883,N,09409.8236,W,9.72,179.00,220915,,,*28
$PNAVA,,5.000000,*7F
$GPRMC,100202,A,3306.9852,N,09409.8235,W,9.72,179.00,220915,,,*24
$PNAVA,,5.000000,*7F
$GPRMC,100203,A,3306.9820,N,09409.8234,W,9.72,179.00,220915,,,*21
$PNAVA,,5.000000,*7F
$GPRMC,100204,A,3306.9790,N,09409.8234,W,9.72,179.00,220915,,,*22
$PNAVA,,5.000000,*7F
$GPRMC,100205,A,3306.9759,N,09409.8233,W,9.72,179.00,220915,,,*21
$PNAVA,,5.000000,*7F
$GPRMC,100206,A,3306.9731,N,09409.8232,W,9.72,179.00,220915,,,*2D
$PNAVA,,5.000000,*7F
$GPRMC,100207,A,3306.9700,N,09409.8231,W,9.72,179.00,220915,,,*2D
$PNAVA,,5.000000,*7F
$GPRMC,100208,A,3306.9669,N,09409.8231,W,9.72,179.00,220915,,,*2C
$PNAVA,,5.000000,*7F
$GPRMC,100209,A,3306.9638,N,09409.8230,W,9.72,179.00,220915,,,*28
$PNAVA,,5.000000,*7F
$GPRMC,100210,A,3306.9607,N,09409.8229,W,9.72,179.00,220915,,,*24
$PNAVA,,5.000000,*7F
$GPRMC,100211,A,3306.9577,N,09409.8228,W,9.72,179.00,220915,,,*20
$PNAVA,,5.000000,*7F
$GPRMC,100212,A,3306.9548,N,09409.8228,W,9.72,179.00,220915,,,*2F
$PNAVA,,5.000000,*7F
$GPRMC,100213,A,3306.9518,N,09409.8227,W,9.72,179.00,220915,,,*24
$PNAVA,,5.000000,*7F
$GPRMC,100214,A,3306.9486,N,09409.8226,W,9.72,179.00,220915,,,*24
$PNAVA,,5.000000,*7F
$GPRMC,100215,A,3306.9456,N,09409.8225,W,9.72,179.00,220915,,,*2B
$PNAVA,,5.000000,*7F
$GPRMC,100216,A,3306.9425,N,09409.8225,W,9.72,179.00,220915,,,*2C
$PNAVA,,5.000000,*7F
$GPRMC,100217,A,3306.9393,N,09409.8224,W,9.72,180.00,220915,,,*20
$PNAVA,,5.000000,*7F
$GPRMC,100218,A,3306.9365,N,09409.8224,W,9.72,180.00,220915,,,*26
$PNAVA,,5.000000,*7F
$GPRMC,100219,A,3306.9334,N,09409.8224,W,9.72,180.00,220915,,,*23
$PNAVA,,5.000000,*7F
$GPRMC,100220,A,3306.9304,N,09409.8225,W,9.72,183.00,220915,,,*28
$PNAVA,,5.000000,*7F
$GPRMC,100221,A,3306.9272,N,09409.8227,W,9.72,183.00,220915,,,*2B
$PNAVA,,5.000000,*7F
$GPRMC,100222,A,3306.9242,N,09409.8228,W,9.72,183.00,220915,,,*24
$PNAVA,,5.000000,*7F
$GPRMC,100223,A,3306.9211,N,09409.8230,W,9.72,183.00,220915,,,*2A
$PNAVA,,5.000000,*7F
$GPRMC,100224,A,3306.9183,N,09409.8232,W,9.72,183.00,220915,,,*27
$PNAVA,,5.000000,*7F
$GPRMC,100226,A,3306.9152,N,09409.8234,W,9.72,183.00,220915,,,*2F
$PNAVA,,5.000000,*7F
$GPRMC,100227,A,3306.9121,N,09409.8236,W,9.72,183.00,220915,,,*28
$PNAVA,,5.000000,*7F
$GPRMC,100228,A,3306.9090,N,09409.8237,W,9.72,183.00,220915,,,*2D
$PNAVA,,5.000000,*7F
$GPRMC,100229,A,3306.9059,N,09409.8242,W,9.72,191.00,220915,,,*28
$PNAVA,,5.000000,*7F
$GPRMC,100230,A,3306.9029,N,09409.8249,W,9.72,191.00,220915,,,*2C
$PNAVA,,5.000000,*7F
$GPRMC,100231,A,3306.9002,N,09409.8256,W,9.72,191.00,220915,,,*2A
$PNAVA,,5.000000,*7F
$GPRMC,100232,A,3306.8972,N,09409.8264,W,9.72,191.00,220915,,,*27
$PNAVA,,5.000000,*7F
$GPRMC,100233,A,3306.8941,N,09409.8271,W,9.72,191.00,220915,,,*22
$PNAVA,,5.000000,*7F
$GPRMC,100234,A,3306.8911,N,09409.8278,W,9.72,191.00,220915,,,*29
$PNAVA,,5.000000,*7F
$GPRMC,100235,A,3306.8881,N,09409.8288,W,9.72,197.00,220915,,,*29
$PNAVA,,5.000000,*7F
$GPRMC,100236,A,3306.8852,N,09409.8299,W,9.72,197.00,220915,,,*24
$PNAVA,,5.000000,*7F
$GPRMC,100237,A,3306.8825,N,09409.8308,W,9.72,197.00,220915,,,*2C
$PNAVA,,5.000000,*7F
$GPRMC,100238,A,3306.8795,N,09409.8319,W,9.72,197.00,220915,,,*27
$PNAVA,,5.000000,*7F
$GPRMC,100239,A,3306.8767,N,09409.8329,W,9.72,198.00,220915,,,*27
$PNAVA,,5.000000,*7F
$GPRMC,100240,A,3306.8738,N,09409.8341,W,9.72,198.00,220915,,,*2D
$PNAVA,,5.000000,*7F
$GPRMC,100241,A,3306.8708,N,09409.8352,W,9.72,198.00,220915,,,*2D
$PNAVA,,5.000000,*7F
$GPRMC,100242,A,3306.8679,N,09409.8363,W,9.72,198.00,220915,,,*2B
$PNAVA,,5.000000,*7F
$GPRMC,100243,A,3306.8653,N,09409.8374,W,9.72,198.00,220915,,,*24
$PNAVA,,5.000000,*7F
$GPRMC,100244,A,3306.8623,N,09409.8385,W,9.72,198.00,220915,,,*2A
$PNAVA,,5.000000,*7F
$GPRMC,100245,A,3306.8594,N,09409.8396,W,9.72,198.00,220915,,,*26
$PNAVA,,5.000000,*7F
$GPRMC,100246,A,3306.8564,N,09409.8407,W,9.72,198.00,220915,,,*25
$PNAVA,,5.000000,*7F
$GPRMC,100247,A,3306.8535,N,09409.8419,W,9.72,198.00,220915,,,*2F
$PNAVA,,5.000000,*7F
$GPRMC,100248,A,3306.8506,N,09409.8430,W,9.72,198.00,220915,,,*2B
$PNAVA,,5.000000,*7F
$GPRMC,100249,A,3306.8479,N,09409.8440,W,9.72,198.00,220915,,,*24
$PNAVA,,5.000000,*7F
$GPRMC,100250,A,3306.8449,N,09409.8452,W,9.72,198.00,220915,,,*2C
$PNAVA,,5.000000,*7F
$GPRMC,100251,A,3306.8419,N,09409.8463,W,9.72,198.00,220915,,,*2A
$PNAVA,,5.000000,*7F
$GPRMC,100252,A,3306.8390,N,09409.8474,W,9.72,198.00,220915,,,*29
$PNAVA,,5.000000,*7F
$GPRMC,100253,A,3306.8361,N,09409.8485,W,9.72,198.00,220915,,,*28
$PNAVA,,5.000000,*7F
$GPRMC,100254,A,3306.8332,N,09409.8497,W,9.72,198.00,220915,,,*2A
$PNAVA,,5.000000,*7F
$GPRMC,100255,A,3306.8305,N,09409.8507,W,9.72,198.00,220915,,,*27
$PNAVA,,5.000000,*7F
$GPRMC,100256,A,3306.8276,N,09409.8518,W,9.72,198.00,220915,,,*2F
$PNAVA,,5.000000,*7F
$GPRMC,100257,A,3306.8246,N,09409.8529,W,9.72,198.00,220915,,,*2F
$PNAVA,,5.000000,*7F
$GPRMC,100258,A,3306.8258,N,09409.8617,W,42.76,291.00,220915,,,*10
$PNAVA,,5.000000,*7F
$GPRMC,100259,A,3306.8302,N,09409.8755,W,42.76,291.00,220915,,,*18
$PNAVA,,5.000000,*7F
$GPRMC,100300,A,3306.8344,N,09409.8893,W,42.76,291.00,220915,,,*12
$PNAVA,,5.000000,*7F
$GPRMC,100301,A,3306.8383,N,09409.9019,W,42.76,291.00,220915,,,*13
$PNAVA,,5.000000,*7F
$GPRMC,100302,A,3306.8426,N,09409.9159,W,42.76,291.00,220915,,,*1D
$PNAVA,,5.000000,*7F
$GPRMC,100303,A,3306.8462,N,09409.9304,W,42.76,285.00,220915,,,*13
$PNAVA,,5.000000,*7F
$GPRMC,100304,A,3306.8494,N,09409.9445,W,42.76,287.00,220915,,,*1D
$PNAVA,,5.000000,*7F
$GPRMC,100305,A,3306.8530,N,09409.9586,W,42.76,287.00,220915,,,*1D
$PNAVA,,5.000000,*7F
$GPRMC,100306,A,3306.8562,N,09409.9700,W,31.10,289.00,220915,,,*1F
$PNAVA,,5.000000,*7F
$GPRMC,100307,A,3306.8589,N,09409.9796,W,31.10,289.00,220915,,,*14
$PNAVA,,5.000000,*7F
$GPRMC,100308,A,3306.8618,N,09409.9901,W,31.10,289.00,220915,,,*10
$PNAVA,,5.000000,*7F
$GPRMC,100309,A,3306.8648,N,09410.0007,W,31.10,289.00,220915,,,*1A
$PNAVA,,5.000000,*7F
$GPRMC,100310,A,3306.8677,N,09410.0110,W,31.10,289.00,220915,,,*19
$PNAVA,,5.000000,*7F
$GPRMC,100311,A,3306.8707,N,09410.0215,W,31.10,289.00,220915,,,*18
$PNAVA,,5.000000,*7F
$GPRMC,100312,A,3306.8736,N,09410.0320,W,31.10,289.00,220915,,,*1E
$PNAVA,,5.000000,*7F
$GPRMC,100313,A,3306.8763,N,09410.0415,W,31.10,289.00,220915,,,*1E
$PNAVA,,5.000000,*7F
$GPRMC,100314,A,3306.8792,N,09410.0520,W,31.10,289.00,220915,,,*10
$PNAVA,,5.000000,*7F
$GPRMC,100315,A,3306.8822,N,09410.0627,W,31.10,289.00,220915,,,*11
$PNAVA,,5.000000,*7F
$GPRMC,100316,A,3306.8852,N,09410.0730,W,31.10,289.00,220915,,,*12
$PNAVA,,5.000000,*7F
$GPRMC,100317,A,3306.8881,N,09410.0835,W,31.10,289.00,220915,,,*17
$PNAVA,,5.000000,*7F
$GPRMC,100318,A,3306.8912,N,09410.0943,W,31.10,289.00,220915,,,*13
$PNAVA,,5.000000,*7F
$GPRMC,100319,A,3306.8939,N,09410.1048,W,31.10,287.00,220915,,,*16
$PNAVA,,5.000000,*7F
$GPRMC,100320,A,3306.8967,N,09410.1156,W,31.10,287.00,220915,,,*19
$PNAVA,,5.000000,*7F
$GPRMC,100321,A,3306.8993,N,09410.1260,W,31.10,287.00,220915,,,*15
$PNAVA,,5.000000,*7F
$GPRMC,100322,A,3306.9021,N,09410.1367,W,31.10,287.00,220915,,,*11
$PNAVA,,5.000000,*7F
$GPRMC,100323,A,3306.9045,N,09410.1472,W,31.10,286.00,220915,,,*10
$PNAVA,,5.000000,*7F
$GPRMC,100324,A,3306.9070,N,09410.1579,W,31.10,286.00,220915,,,*1B
$PNAVA,,5.000000,*7F
$GPRMC,100325,A,3306.9092,N,09410.1676,W,31.10,286.00,220915,,,*1A
$PNAVA,,5.000000,*7F
$GPRMC,100326,A,3306.9116,N,09410.1783,W,31.10,286.00,220915,,,*1F
$PNAVA,,5.000000,*7F
$GPRMC,100327,A,3306.9135,N,09410.1891,W,31.10,281.00,220915,,,*14
$PNAVA,,5.000000,*7F
$GPRMC,100328,A,3306.9151,N,09410.2006,W,31.10,270.00,220915,,,*12
$PNAVA,,5.000000,*7F
$GPRMC,100329,A,3306.9151,N,09410.2116,W,31.10,270.00,220915,,,*13
$PNAVA,,5.000000,*7F
$GPRMC,100330,A,3306.9151,N,09410.2227,W,31.10,270.00,220915,,,*1A
$PNAVA,,5.000000,*7F
$GPRMC,100331,A,3306.9151,N,09410.2328,W,31.10,270.00,220915,,,*15
$PNAVA,,5.000000,*7F
$GPRMC,100332,A,3306.9151,N,09410.2439,W,31.10,270.00,220915,,,*11
$PNAVA,,5.000000,*7F
$GPRMC,100333,A,3306.9148,N,09410.2549,W,31.10,267.00,220915,,,*18
$PNAVA,,5.000000,*7F
$GPRMC,100334,A,3306.9144,N,09410.2659,W,31.10,267.00,220915,,,*11
$PNAVA,,5.000000,*7F
$GPRMC,100335,A,3306.9137,N,09410.2770,W,31.10,259.00,220915,,,*13
$PNAVA,,5.000000,*7F
$GPRMC,100336,A,3306.9121,N,09410.2878,W,31.10,259.00,220915,,,*10
$PNAVA,,5.000000,*7F
$GPRMC,100338,A,3306.9101,N,09410.2985,W,31.10,257.00,220915,,,*11
$PNAVA,,5.000000,*7F
$GPRMC,100339,A,3306.9080,N,09410.3093,W,31.10,257.00,220915,,,*17
$PNAVA,,5.000000,*7F
$GPRMC,100340,A,3306.9049,N,09410.3199,W,31.10,248.00,220915,,,*19
$PNAVA,,5.000000,*7F
$GPRMC,100341,A,3306.9015,N,09410.3302,W,31.10,248.00,220915,,,*11
$PNAVA,,5.000000,*7F
$GPRMC,100342,A,3306.8981,N,09410.3405,W,31.10,248.00,220915,,,*17
$PNAVA,,5.000000,*7F
$GPRMC,100343,A,3306.8944,N,09410.3516,W,31.10,245.00,220915,,,*11
$PNAVA,,5.000000,*7F
$GPRMC,100344,A,3306.8909,N,09410.3607,W,31.10,245.00,220915,,,*1C
$PNAVA,,5.000000,*7F
$GPRMC,100345,A,3306.8870,N,09410.3708,W,31.10,245.00,220915,,,*1C
$PNAVA,,5.000000,*7F
$GPRMC,100346,A,3306.8830,N,09410.3808,W,31.10,245.00,220915,,,*14
$PNAVA,,5.000000,*7F
$GPRMC,100347,A,3306.8791,N,09410.3909,W,31.10,245.00,220915,,,*11
$PNAVA,,5.000000,*7F
$GPRMC,100348,A,3306.8752,N,09410.4008,W,31.10,245.00,220915,,,*1E
$PNAVA,,5.000000,*7F
$GPRMC,100349,A,3306.8713,N,09410.4108,W,31.10,245.00,220915,,,*1B
$PNAVA,,5.000000,*7F
$GPRMC,100350,A,3306.8674,N,09410.4207,W,31.10,246.00,220915,,,*1C
$PNAVA,,5.000000,*7F
$GPRMC,100351,A,3306.8637,N,09410.4308,W,31.10,246.00,220915,,,*14
$PNAVA,,5.000000,*7F
$GPRMC,100352,A,3306.8599,N,09410.4411,W,31.10,246.00,220915,,,*1F
$PNAVA,,5.000000,*7F
$GPRMC,100353,A,3306.8562,N,09410.4510,W,31.10,246.00,220915,,,*1A
$PNAVA,,5.000000,*7F
$GPRMC,100354,A,3306.8524,N,09410.4615,W,31.10,245.00,220915,,,*1A
$PNAVA,,5.000000,*7F
$GPRMC,100355,A,3306.8485,N,09410.4714,W,31.10,245.00,220915,,,*11
$PNAVA,,5.000000,*7F
$GPRMC,100356,A,3306.8449,N,09410.4805,W,31.10,245.00,220915,,,*1D
$PNAVA,,5.000000,*7F
$GPRMC,100357,A,3306.8410,N,09410.4905,W,31.10,245.00,220915,,,*11
$PNAVA,,5.000000,*7F
$GPRMC,100358,A,3306.8371,N,09410.5007,W,31.10,245.00,220915,,,*14
$PNAVA,,5.000000,*7F
$GPRMC,100359,A,3306.8332,N,09410.5106,W,31.10,245.00,220915,,,*12
$PNAVA,,5.000000,*7F
$GPRMC,100400,A,3306.8293,N,09410.5206,W,31.10,245.00,220915,,,*10
$PNAVA,,5.000000,*7F
$GPRMC,100401,A,3306.8254,N,09410.5307,W,31.10,245.00,220915,,,*1A
$PNAVA,,5.000000,*7F
$GPRMC,100402,A,3306.8219,N,09410.5398,W,31.10,245.00,220915,,,*16
$PNAVA,,5.000000,*7F
$GPRMC,100403,A,3306.8179,N,09410.5500,W,31.10,245.00,220915,,,*15
$PNAVA,,5.000000,*7F
$GPRMC,100404,A,3306.8140,N,09410.5598,W,31.10,245.00,220915,,,*19
$PNAVA,,5.000000,*7F
$GPRMC,100405,A,3306.8101,N,09410.5698,W,31.10,245.00,220915,,,*1E
$PNAVA,,5.000000,*7F
$GPRMC,100406,A,3306.8062,N,09410.5799,W,31.10,245.00,220915,,,*19
$PNAVA,,5.000000,*7F
$GPRMC,100407,A,3306.8023,N,09410.5899,W,31.10,245.00,220915,,,*12
$PNAVA,,5.000000,*7F
$GPRMC,100408,A,3306.7987,N,09410.5990,W,31.10,245.00,220915,,,*1D
$PNAVA,,5.000000,*7F
$GPRMC,100409,A,3306.7947,N,09410.6090,W,31.10,245.00,220915,,,*1A
$PNAVA,,5.000000,*7F
$GPRMC,100410,A,3306.7907,N,09410.6192,W,31.10,245.00,220915,,,*15
$PNAVA,,5.000000,*7F
$GPRMC,100411,A,3306.7868,N,09410.6290,W,31.10,245.00,220915,,,*1D
$PNAVA,,5.000000,*7F
$GPRMC,100412,A,3306.7829,N,09410.6390,W,31.10,245.00,220915,,,*1A
$PNAVA,,5.000000,*7F
$GPRMC,100413,A,3306.7790,N,09410.6490,W,31.10,245.00,220915,,,*11
$PNAVA,,5.000000,*7F
$GPRMC,100414,A,3306.7745,N,09410.6607,W,31.10,249.00,220915,,,*1E
$PNAVA,,5.000000,*7F
$GPRMC,100415,A,3306.7712,N,09410.6711,W,31.10,249.00,220915,,,*1B
$PNAVA,,5.000000,*7F
$GPRMC,100416,A,3306.7679,N,09410.6816,W,31.10,249.00,220915,,,*1C
$PNAVA,,5.000000,*7F
$GPRMC,100417,A,3306.7645,N,09410.6922,W,31.10,249.00,220915,,,*14
$PNAVA,,5.000000,*7F
$GPRMC,100418,A,3306.7612,N,09410.7026,W,31.10,249.00,220915,,,*15
$PNAVA,,5.000000,*7F
$GPRMC,100419,A,3306.7579,N,09410.7129,W,31.10,249.00,220915,,,*14
$PNAVA,,5.000000,*7F
$GPRMC,100420,A,3306.7547,N,09410.7226,W,31.10,249.00,220915,,,*1F
$PNAVA,,5.000000,*7F
$GPRMC,100421,A,3306.7515,N,09410.7327,W,31.10,249.00,220915,,,*19
$PNAVA,,5.000000,*7F
$GPRMC,100422,A,3306.7482,N,09410.7429,W,31.10,249.00,220915,,,*1C
$PNAVA,,5.000000,*7F
$GPRMC,100423,A,3306.7449,N,09410.7533,W,31.10,249.00,220915,,,*10
$PNAVA,,5.000000,*7F
$GPRMC,100424,A,3306.7416,N,09410.7636,W,31.10,249.00,220915,,,*1B
$PNAVA,,5.000000,*7F
$GPRMC,100425,A,3306.7383,N,09410.7739,W,31.10,249.00,220915,,,*1F
$PNAVA,,5.000000,*7F
$GPRMC,100426,A,3306.7352,N,09410.7834,W,31.10,249.00,220915,,,*12
$PNAVA,,5.000000,*7F
$GPRMC,100427,A,3306.7317,N,09410.7944,W,31.10,249.00,220915,,,*14
$PNAVA,,5.000000,*7F
$GPRMC,100428,A,3306.7283,N,09410.8047,W,31.10,249.00,220915,,,*12
$PNAVA,,5.000000,*7F
$GPRMC,100429,A,3306.7250,N,09410.8151,W,31.10,249.00,220915,,,*1B
$PNAVA,,5.000000,*7F
$GPRMC,100430,A,3306.7214,N,09410.8260,W,31.10,249.00,220915,,,*12
$PNAVA,,5.000000,*7F
$GPRMC,100431,A,3306.7181,N,09410.8363,W,31.10,249.00,220915,,,*1E
$PNAVA,,5.000000,*7F
$GPRMC,100432,A,3306.7151,N,09410.8457,W,31.10,249.00,220915,,,*10
$PNAVA,,5.000000,*7F
$GPRMC,100433,A,3306.7118,N,09410.8560,W,31.10,249.00,220915,,,*19
$PNAVA,,5.000000,*7F
$GPRMC,100434,A,3306.7084,N,09410.8665,W,31.10,249.00,220915,,,*1C
$PNAVA,,5.000000,*7F
$GPRMC,100435,A,3306.7051,N,09410.8767,W,31.10,249.00,220915,,,*16
$PNAVA,,5.000000,*7F
$GPRMC,100436,A,3306.7018,N,09410.8870,W,31.10,249.00,220915,,,*11
$PNAVA,,5.000000,*7F
$GPRMC,100437,A,3306.6996,N,09410.8981,W,31.10,283.00,220915,,,*17
$PNAVA,,5.000000,*7F
$GPRMC,100438,A,3306.6985,N,09410.9078,W,31.10,253.00,220915,,,*19
$PNAVA,,5.000000,*7F
$GPRMC,100439,A,3306.6958,N,09410.9183,W,31.10,253.00,220915,,,*1D
$PNAVA,,5.000000,*7F
$GPRMC,100440,A,3306.6931,N,09410.9289,W,31.10,253.00,220915,,,*15
$PNAVA,,5.000000,*7F
$GPRMC,100441,A,3306.6904,N,09410.9397,W,31.10,253.00,220915,,,*1C
$PNAVA,,5.000000,*7F
$GPRMC,100442,A,3306.6877,N,09410.9501,W,31.10,253.00,220915,,,*13
$PNAVA,,5.000000,*7F
$GPRMC,100443,A,3306.6841,N,09410.9612,W,31.10,248.00,220915,,,*1C
$PNAVA,,5.000000,*7F
$GPRMC,100444,A,3306.6813,N,09410.9709,W,31.10,251.00,220915,,,*1F
$PNAVA,,5.000000,*7F
$GPRMC,100445,A,3306.6782,N,09410.9814,W,31.10,251.00,220915,,,*1A
$PNAVA,,5.000000,*7F
$GPRMC,100446,A,3306.6752,N,09410.9918,W,31.10,251.00,220915,,,*19
$PNAVA,,5.000000,*7F
$GPRMC,100447,A,3306.6721,N,09411.0023,W,31.10,251.00,220915,,,*15
$PNAVA,,5.000000,*7F
$GPRMC,100448,A,3306.6685,N,09411.0144,W,42.76,250.00,220915,,,*10
$PNAVA,,5.000000,*7F
$GPRMC,100449,A,3306.6644,N,09411.0284,W,42.76,250.00,220915,,,*13
$PNAVA,,5.000000,*7F
$GPRMC,100451,A,3306.6605,N,09411.0412,W,42.76,250.00,220915,,,*16
$PNAVA,,5.000000,*7F
$GPRMC,100452,A,3306.6565,N,09411.0549,W,42.76,250.00,220915,,,*1F
$PNAVA,,5.000000,*7F
$GPRMC,100453,A,3306.6521,N,09411.0689,W,42.76,249.00,220915,,,*19
$PNAVA,,5.000000,*7F
$GPRMC,100454,A,3306.6479,N,09411.0825,W,42.76,249.00,220915,,,*1A
$PNAVA,,5.000000,*7F
$GPRMC,100455,A,3306.6436,N,09411.0964,W,42.76,249.00,220915,,,*14
$PNAVA,,5.000000,*7F
$GPRMC,100456,A,3306.6392,N,09411.1110,W,42.76,250.00,220915,,,*1C
$PNAVA,,5.000000,*7F
$GPRMC,100457,A,3306.6354,N,09411.1237,W,42.76,249.00,220915,,,*19
$PNAVA,,5.000000,*7F
$GPRMC,100458,A,3306.6310,N,09411.1374,W,42.76,249.00,220915,,,*10
$PNAVA,,5.000000,*7F
$GPRMC,100459,A,3306.6266,N,09411.1512,W,42.76,249.00,220915,,,*17
$PNAVA,,5.000000,*7F
$GPRMC,100500,A,3306.6222,N,09411.1650,W,42.76,249.00,220915,,,*1F
$PNAVA,,5.000000,*7F
$GPRMC,100501,A,3306.6177,N,09411.1788,W,42.76,249.00,220915,,,*19
$PNAVA,,5.000000,*7F
$GPRMC,100502,A,3306.6133,N,09411.1925,W,42.76,249.00,220915,,,*13
$PNAVA,,5.000000,*7F
$GPRMC,100503,A,3306.6092,N,09411.2050,W,42.76,249.00,220915,,,*10
$PNAVA,,5.000000,*7F
$GPRMC,100504,A,3306.6047,N,09411.2190,W,42.76,249.00,220915,,,*12
$PNAVA,,5.000000,*7F
$GPRMC,100505,A,3306.6002,N,09411.2325,W,42.76,249.00,220915,,,*1E
$PNAVA,,5.000000,*7F
$GPRMC,100506,A,3306.5957,N,09411.2465,W,42.76,249.00,220915,,,*14
$PNAVA,,5.000000,*7F
$GPRMC,100507,A,3306.5913,N,09411.2600,W,42.76,248.00,220915,,,*15
$PNAVA,,5.000000,*7F
$GPRMC,100508,A,3306.5867,N,09411.2738,W,42.76,248.00,220915,,,*12
$PNAVA,,5.000000,*7F
$GPRMC,100509,A,3306.5826,N,09411.2862,W,42.76,248.00,220915,,,*16
$PNAVA,,5.000000,*7F
$GPRMC,100510,A,3306.5781,N,09411.2999,W,42.76,248.00,220915,,,*19
$PNAVA,,5.000000,*7F
$GPRMC,100511,A,3306.5735,N,09411.3138,W,42.76,248.00,220915,,,*15
$PNAVA,,5.000000,*7F
$GPRMC,100512,A,3306.5690,N,09411.3273,W,42.76,248.00,220915,,,*14
$PNAVA,,5.000000,*7F
$GPRMC,100513,A,3306.5639,N,09411.3428,W,42.76,248.00,220915,,,*1E
$PNAVA,,5.000000,*7F
$GPRMC,100514,A,3306.5593,N,09411.3564,W,42.76,248.00,220915,,,*13
$PNAVA,,5.000000,*7F
$GPRMC,100515,A,3306.5551,N,09411.3689,W,42.76,248.00,220915,,,*1C
$PNAVA,,5.000000,*7F
$GPRMC,100516,A,3306.5504,N,09411.3825,W,42.76,248.00,220915,,,*17
$PNAVA,,5.000000,*7F
$GPRMC,100517,A,3306.5458,N,09411.3962,W,42.76,248.00,220915,,,*1C
$PNAVA,,5.000000,*7F
$GPRMC,100518,A,3306.5411,N,09411.4098,W,42.76,248.00,220915,,,*15
$PNAVA,,5.000000,*7F
$GPRMC,100519,A,3306.5366,N,09411.4246,W,42.76,253.00,220915,,,*18
$PNAVA,,5.000000,*7F
$GPRMC,100520,A,3306.5320,N,09411.4382,W,42.76,247.00,220915,,,*1C
$PNAVA,,5.000000,*7F
$GPRMC,100521,A,3306.5276,N,09411.4506,W,42.76,247.00,220915,,,*15
$PNAVA,,5.000000,*7F
$GPRMC,100522,A,3306.5226,N,09411.4643,W,42.76,247.00,220915,,,*11
$PNAVA,,5.000000,*7F
$GPRMC,100523,A,3306.5179,N,09411.4777,W,42.76,247.00,220915,,,*1F
$PNAVA,,5.000000,*7F
$GPRMC,100524,A,3306.5130,N,09411.4913,W,42.76,247.00,220915,,,*19
$PNAVA,,5.000000,*7F
$GPRMC,100525,A,3306.5081,N,09411.5048,W,42.76,247.00,220915,,,*15
$PNAVA,,5.000000,*7F
$GPRMC,100526,A,3306.5033,N,09411.5184,W,42.76,247.00,220915,,,*1E
$PNAVA,,5.000000,*7F
$GPRMC,100527,A,3306.4988,N,09411.5307,W,42.76,247.00,220915,,,*1E
$PNAVA,,5.000000,*7F
$GPRMC,100528,A,3306.4904,N,09411.5438,W,60.26,249.00,220915,,,*15
$PNAVA,,5.000000,*7F
$GPRMC,100529,A,3306.4841,N,09411.5636,W,60.26,249.00,220915,,,*18
$PNAVA,,5.000000,*7F
$GPRMC,100530,A,3306.4777,N,09411.5834,W,60.26,248.00,220915,,,*17
$PNAVA,,5.000000,*7F
$GPRMC,100531,A,3306.4711,N,09411.6030,W,60.26,248.00,220915,,,*19
$PNAVA,,5.000000,*7F
$GPRMC,100532,A,3306.4644,N,09411.6227,W,60.26,248.00,220915,,,*1F
$PNAVA,,5.000000,*7F
$GPRMC,100533,A,3306.4583,N,09411.6406,W,60.26,248.00,220915,,,*13
$PNAVA,,5.000000,*7F
$GPRMC,100534,A,3306.4519,N,09411.6604,W,60.26,249.00,220915,,,*16
$PNAVA,,5.000000,*7F
$GPRMC,100535,A,3306.4456,N,09411.6802,W,60.26,249.00,220915,,,*15
$PNAVA,,5.000000,*7F
$GPRMC,100536,A,3306.4393,N,09411.7000,W,60.26,249.00,220915,,,*13
$PNAVA,,5.000000,*7F
$GPRMC,100537,A,3306.4329,N,09411.7197,W,60.26,249.00,220915,,,*1C
$PNAVA,,5.000000,*7F
$GPRMC,100538,A,3306.4265,N,09411.7395,W,60.26,249.00,220915,,,*1A
$PNAVA,,5.000000,*7F
$GPRMC,100539,A,3306.4202,N,09411.7596,W,60.26,249.00,220915,,,*1F
$PNAVA,,5.000000,*7F
$GPRMC,100540,A,3306.4138,N,09411.7797,W,60.26,249.00,220915,,,*18
$PNAVA,,5.000000,*7F
$GPRMC,100541,A,3306.4076,N,09411.7992,W,60.26,249.00,220915,,,*19
$PNAVA,,5.000000,*7F
$GPRMC,100542,A,3306.4013,N,09411.8191,W,60.26,249.00,220915,,,*1D
$PNAVA,,5.000000,*7F
$GPRMC,100543,A,3306.3950,N,09411.8390,W,60.26,249.00,220915,,,*16
$PNAVA,,5.000000,*7F
$GPRMC,100544,A,3306.3888,N,09411.8588,W,60.26,249.00,220915,,,*1A
$PNAVA,,5.000000,*7F
$GPRMC,100545,A,3306.3827,N,09411.8781,W,60.26,248.00,220915,,,*14
$PNAVA,,5.000000,*7F
$GPRMC,100546,A,3306.3760,N,09411.8978,W,60.26,248.00,220915,,,*13
$PNAVA,,5.000000,*7F
$GPRMC,100547,A,3306.3695,N,09411.9175,W,60.26,250.00,220915,,,*14
$PNAVA,,5.000000,*7F
$GPRMC,100548,A,3306.3634,N,09411.9374,W,60.26,250.00,220915,,,*13
$PNAVA,,5.000000,*7F
$GPRMC,100549,A,3306.3571,N,09411.9572,W,60.26,248.00,220915,,,*19
$PNAVA,,5.000000,*7F
$GPRMC,100550,A,3306.3507,N,09411.9769,W,60.26,248.00,220915,,,*18
$PNAVA,,5.000000,*7F
$GPRMC,100551,A,3306.3449,N,09411.9949,W,60.26,249.00,220915,,,*1F
$PNAVA,,5.000000,*7F
$GPRMC,100552,A,3306.3386,N,09412.0148,W,60.26,249.00,220915,,,*1B
$PNAVA,,5.000000,*7F
$GPRMC,100553,A,3306.3323,N,09412.0346,W,60.26,249.00,220915,,,*19
$PNAVA,,5.000000,*7F
$GPRMC,100554,A,3306.3259,N,09412.0544,W,60.26,249.00,220915,,,*16
$PNAVA,,5.000000,*7F
$GPRMC,100555,A,3306.3196,N,09412.0742,W,60.26,249.00,220915,,,*13
$PNAVA,,5.000000,*7F
$GPRMC,100556,A,3306.3133,N,09412.0940,W,60.26,249.00,220915,,,*13
$PNAVA,,5.000000,*7F
$GPRMC,100557,A,3306.3076,N,09412.1120,W,60.26,249.00,220915,,,*1D
$PNAVA,,5.000000,*7F
$GPRMC,100558,A,3306.3013,N,09412.1319,W,60.26,249.00,220915,,,*19
$PNAVA,,5.000000,*7F
$GPRMC,100559,A,3306.2950,N,09412.1517,W,60.26,249.00,220915,,,*1F
$PNAVA,,5.000000,*7F
$GPRMC,100600,A,3306.2887,N,09412.1715,W,60.26,249.00,220915,,,*1B
$PNAVA,,5.000000,*7F
$GPRMC,100601,A,3306.2823,N,09412.1913,W,60.26,249.00,220915,,,*1C
$PNAVA,,5.000000,*7F
$GPRMC,100602,A,3306.2760,N,09412.2111,W,60.26,249.00,220915,,,*1E
$PNAVA,,5.000000,*7F
$GPRMC,100604,A,3306.2703,N,09412.2291,W,60.26,249.00,220915,,,*16
$PNAVA,,5.000000,*7F
$GPRMC,100605,A,3306.2639,N,09412.2489,W,60.26,249.00,220915,,,*10
$PNAVA,,5.000000,*7F
$GPRMC,100606,A,3306.2576,N,09412.2688,W,60.26,249.00,220915,,,*18
$PNAVA,,5.000000,*7F
$GPRMC,100607,A,3306.2513,N,09412.2886,W,60.26,249.00,220915,,,*1A
$PNAVA,,5.000000,*7F
$GPRMC,100608,A,3306.2450,N,09412.3084,W,60.26,249.00,220915,,,*18
$PNAVA,,5.000000,*7F
$GPRMC,100609,A,3306.2387,N,09412.3282,W,60.26,249.00,220915,,,*10
$PNAVA,,5.000000,*7F
$GPRMC,100610,A,3306.2330,N,09412.3463,W,60.26,249.00,220915,,,*1D
$PNAVA,,5.000000,*7F
$GPRMC,100611,A,3306.2266,N,09412.3660,W,60.26,249.00,220915,,,*1F
$PNAVA,,5.000000,*7F
$GPRMC,100612,A,3306.2201,N,09412.3857,W,60.26,249.00,220915,,,*17
$PNAVA,,5.000000,*7F
$GPRMC,100613,A,3306.2137,N,09412.4055,W,60.26,249.00,220915,,,*1D
$PNAVA,,5.000000,*7F
$GPRMC,100614,A,3306.2072,N,09412.4253,W,60.26,249.00,220915,,,*1E
$PNAVA,,5.000000,*7F
$GPRMC,100615,A,3306.2008,N,09412.4450,W,60.26,249.00,220915,,,*17
$PNAVA,,5.000000,*7F
$GPRMC,100616,A,3306.1949,N,09412.4630,W,60.26,249.00,220915,,,*1F
$PNAVA,,5.000000,*7F
$GPRMC,100617,A,3306.1868,N,09412.4887,W,60.26,249.00,220915,,,*1E
$PNAVA,,5.000000,*7F
$GPRMC,100618,A,3306.1805,N,09412.5086,W,60.26,249.00,220915,,,*12
$PNAVA,,5.000000,*7F
$GPRMC,100619,A,3306.1744,N,09412.5284,W,60.26,249.00,220915,,,*19
$PNAVA,,5.000000,*7F
$GPRMC,100620,A,3306.1679,N,09412.5487,W,60.26,249.00,220915,,,*19
$PNAVA,,5.000000,*7F
$GPRMC,100621,A,3306.1617,N,09412.5686,W,60.26,249.00,220915,,,*13
$PNAVA,,5.000000,*7F
$GPRMC,100622,A,3306.1561,N,09412.5866,W,60.26,249.00,220915,,,*12
$PNAVA,,5.000000,*7F
$GPRMC,100623,A,3306.1498,N,09412.6064,W,60.26,249.00,220915,,,*1D
$PNAVA,,5.000000,*7F
$GPRMC,100624,A,3306.1435,N,09412.6263,W,60.26,249.00,220915,,,*18
$PNAVA,,5.000000,*7F
$GPRMC,100625,A,3306.1372,N,09412.6461,W,60.26,249.00,220915,,,*19
$PNAVA,,5.000000,*7F
$GPRMC,100626,A,3306.1309,N,09412.6659,W,60.26,249.00,220915,,,*1F
$PNAVA,,5.000000,*7F
$GPRMC,100627,A,3306.1246,N,09412.6857,W,60.26,249.00,220915,,,*14
$PNAVA,,5.000000,*7F
$GPRMC,100628,A,3306.1189,N,09412.7037,W,60.26,249.00,220915,,,*14
$PNAVA,,5.000000,*7F
$GPRMC,100629,A,3306.1125,N,09412.7235,W,60.26,249.00,220915,,,*13
$PNAVA,,5.000000,*7F
$GPRMC,100630,A,3306.1060,N,09412.7433,W,60.26,247.00,220915,,,*15
$PNAVA,,5.000000,*7F
$GPRMC,100631,A,3306.0985,N,09412.7648,W,60.26,247.00,220915,,,*19
$PNAVA,,5.000000,*7F
$GPRMC,100632,A,3306.0917,N,09412.7843,W,60.26,247.00,220915,,,*14
$PNAVA,,5.000000,*7F
$GPRMC,100633,A,3306.0847,N,09412.8045,W,60.26,249.00,220915,,,*1E
$PNAVA,,5.000000,*7F
$GPRMC,100634,A,3306.0790,N,09412.8225,W,60.26,249.00,220915,,,*18
$PNAVA,,5.000000,*7F
$GPRMC,100635,A,3306.0727,N,09412.8423,W,60.26,249.00,220915,,,*15
$PNAVA,,5.000000,*7F
$GPRMC,100636,A,3306.0664,N,09412.8621,W,60.26,249.00,220915,,,*10
$PNAVA,,5.000000,*7F
$GPRMC,100637,A,3306.0601,N,09412.8819,W,60.26,249.00,220915,,,*17
$PNAVA,,5.000000,*7F
$GPRMC,100638,A,3306.0538,N,09412.9018,W,60.26,249.00,220915,,,*19
$PNAVA,,5.000000,*7F
$GPRMC,100639,A,3306.0475,N,09412.9216,W,60.26,249.00,220915,,,*1C
$PNAVA,,5.000000,*7F
$GPRMC,100640,A,3306.0418,N,09412.9397,W,60.26,249.00,220915,,,*11
$PNAVA,,5.000000,*7F
$GPRMC,100641,A,3306.0354,N,09412.9594,W,60.26,248.00,220915,,,*1B
$PNAVA,,5.000000,*7F
$GPRMC,100642,A,3306.0289,N,09412.9791,W,60.26,248.00,220915,,,*1E
$PNAVA,,5.000000,*7F
$GPRMC,100643,A,3306.0224,N,09412.9989,W,60.26,248.00,220915,,,*1F
$PNAVA,,5.000000,*7F
$GPRMC,100644,A,3306.0160,N,09413.0186,W,60.26,248.00,220915,,,*14
$PNAVA,,5.000000,*7F
$GPRMC,100645,A,3306.0095,N,09413.0384,W,60.26,248.00,220915,,,*1E
$PNAVA,,5.000000,*7F
$GPRMC,100646,A,3306.0028,N,09413.0589,W,60.26,249.00,220915,,,*11
$PNAVA,,5.000000,*7F
$GPRMC,100647,A,3305.9963,N,09413.0787,W,60.26,249.00,220915,,,*10
$PNAVA,,5.000000,*7F
$GPRMC,100648,A,3305.9900,N,09413.0985,W,60.26,249.00,220915,,,*16
$PNAVA,,5.000000,*7F
$GPRMC,100649,A,3305.9836,N,09413.1191,W,60.26,250.00,220915,,,*17
$PNAVA,,5.000000,*7F
$GPRMC,100650,A,3305.9775,N,09413.1390,W,60.26,250.00,220915,,,*14
$PNAVA,,5.000000,*7F
$GPRMC,100651,A,3305.9714,N,09413.1589,W,60.26,250.00,220915,,,*1C
$PNAVA,,5.000000,*7F
$GPRMC,100652,A,3305.9659,N,09413.1770,W,60.26,250.00,220915,,,*13
$PNAVA,,5.000000,*7F
$GPRMC,100653,A,3305.9597,N,09413.1969,W,60.26,250.00,220915,,,*15
$PNAVA,,5.000000,*7F
$GPRMC,100654,A,3305.9537,N,09413.2168,W,60.26,250.00,220915,,,*12
$PNAVA,,5.000000,*7F
$GPRMC,100655,A,3305.9476,N,09413.2367,W,60.26,250.00,220915,,,*1A
$PNAVA,,5.000000,*7F
$GPRMC,100656,A,3305.9414,N,09413.2566,W,60.26,250.00,220915,,,*1A
$PNAVA,,5.000000,*7F
$GPRMC,100657,A,3305.9348,N,09413.2763,W,60.26,248.00,220915,,,*1B
$PNAVA,,5.000000,*7F
$GPRMC,100658,A,3305.9287,N,09413.2941,W,60.26,248.00,220915,,,*18
$PNAVA,,5.000000,*7F
$GPRMC,100659,A,3305.9220,N,09413.3138,W,60.26,248.00,220915,,,*13
$PNAVA,,5.000000,*7F
$GPRMC,100700,A,3305.9153,N,09413.3334,W,60.26,248.00,220915,,,*17
$PNAVA,,5.000000,*7F
$GPRMC,100701,A,3305.9084,N,09413.3529,W,60.26,243.00,220915,,,*1C
$PNAVA,,5.000000,*7F
$GPRMC,100702,A,3305.9003,N,09413.3718,W,60.26,243.00,220915,,,*10
$PNAVA,,5.000000,*7F
$GPRMC,100703,A,3305.8922,N,09413.3906,W,60.26,240.00,220915,,,*18
$PNAVA,,5.000000,*7F
$GPRMC,100704,A,3305.8841,N,09413.4074,W,60.26,240.00,220915,,,*10
$PNAVA,,5.000000,*7F
$GPRMC,100705,A,3305.8750,N,09413.4255,W,60.26,233.00,220915,,,*1B
$PNAVA,,5.000000,*7F
$GPRMC,100706,A,3305.8645,N,09413.4426,W,60.26,233.00,220915,,,*1F
$PNAVA,,5.000000,*7F
$GPRMC,100707,A,3305.8540,N,09413.4597,W,60.26,233.00,220915,,,*13
$PNAVA,,5.000000,*7F
$GPRMC,100708,A,3305.8432,N,09413.4764,W,60.26,229.00,220915,,,*1D
$PNAVA,,5.000000,*7F
$GPRMC,100709,A,3305.8315,N,09413.4925,W,60.26,229.00,220915,,,*15
$PNAVA,,5.000000,*7F
$GPRMC,100710,A,3305.8183,N,09413.5088,W,60.26,225.00,220915,,,*13
$PNAVA,,5.000000,*7F
$GPRMC,100711,A,3305.8058,N,09413.5238,W,60.26,225.00,220915,,,*1C
$PNAVA,,5.000000,*7F
$GPRMC,100712,A,3305.7927,N,09413.5382,W,60.26,221.00,220915,,,*15
$PNAVA,,5.000000,*7F
$GPRMC,100713,A,3305.7794,N,09413.5523,W,60.26,221.00,220915,,,*1F
$PNAVA,,5.000000,*7F
$GPRMC,100714,A,3305.7659,N,09413.5659,W,60.26,219.00,220915,,,*1D
$PNAVA,,5.000000,*7F
$GPRMC,100715,A,3305.7521,N,09413.5794,W,60.26,219.00,220915,,,*10
$PNAVA,,5.000000,*7F
$GPRMC,100717,A,3305.7396,N,09413.5916,W,60.26,219.00,220915,,,*1C
$PNAVA,,5.000000,*7F
$GPRMC,100718,A,3305.7259,N,09413.6049,W,60.26,219.00,220915,,,*11
$PNAVA,,5.000000,*7F
$GPRMC,100719,A,3305.7121,N,09413.6183,W,60.26,219.00,220915,,,*1B
$PNAVA,,5.000000,*7F
$GPRMC,100720,A,3305.6982,N,09413.6322,W,60.26,220.00,220915,,,*12
$PNAVA,,5.000000,*7F
$GPRMC,100721,A,3305.6846,N,09413.6458,W,60.26,220.00,220915,,,*10
$PNAVA,,5.000000,*7F
$GPRMC,100722,A,3305.6710,N,09413.6594,W,60.26,220.00,220915,,,*1E
$PNAVA,,5.000000,*7F
$GPRMC,100723,A,3305.6587,N,09413.6718,W,60.26,220.00,220915,,,*15
$PNAVA,,5.000000,*7F
$GPRMC,100724,A,3305.6451,N,09413.6855,W,60.26,220.00,220915,,,*1E
$PNAVA,,5.000000,*7F
$GPRMC,100725,A,3305.6315,N,09413.6994,W,60.26,222.00,220915,,,*16
$PNAVA,,5.000000,*7F
$GPRMC,100726,A,3305.6185,N,09413.7138,W,60.26,222.00,220915,,,*11
$PNAVA,,5.000000,*7F
$GPRMC,100727,A,3305.6056,N,09413.7284,W,60.26,226.00,220915,,,*1F
$PNAVA,,5.000000,*7F
$GPRMC,100728,A,3305.5934,N,09413.7438,W,60.26,226.00,220915,,,*1F
$PNAVA,,5.000000,*7F
$GPRMC,100729,A,3305.5822,N,09413.7578,W,60.26,226.00,220915,,,*1D
$PNAVA,,5.000000,*7F
$GPRMC,100730,A,3305.5703,N,09413.7734,W,60.26,228.00,220915,,,*1D
$PNAVA,,5.000000,*7F
$GPRMC,100731,A,3305.5585,N,09413.7893,W,60.26,228.00,220915,,,*12
$PNAVA,,5.000000,*7F
$GPRMC,100732,A,3305.5468,N,09413.8052,W,60.26,228.00,220915,,,*19
$PNAVA,,5.000000,*7F
$GPRMC,100733,A,3305.5350,N,09413.8210,W,60.26,228.00,220915,,,*10
$PNAVA,,5.000000,*7F
$GPRMC,100734,A,3305.5232,N,09413.8369,W,60.26,228.00,220915,,,*1D
$PNAVA,,5.000000,*7F
$GPRMC,100735,A,3305.5125,N,09413.8513,W,60.26,228.00,220915,,,*12
$PNAVA,,5.000000,*7F
$GPRMC,100736,A,3305.5007,N,09413.8672,W,60.26,228.00,220915,,,*14
$PNAVA,,5.000000,*7F
$GPRMC,100737,A,3305.4889,N,09413.8830,W,60.26,228.00,220915,,,*12
$PNAVA,,5.000000,*7F
$GPRMC,100738,A,3305.4772,N,09413.8989,W,60.26,228.00,220915,,,*15
$PNAVA,,5.000000,*7F
$GPRMC,100739,A,3305.4654,N,09413.9148,W,60.26,228.00,220915,,,*15
$PNAVA,,5.000000,*7F
$GPRMC,100740,A,3305.4536,N,09413.9307,W,60.26,228.00,220915,,,*15
$PNAVA,,5.000000,*7F
$GPRMC,100741,A,3305.4421,N,09413.9462,W,60.26,228.00,220915,,,*17
$PNAVA,,5.000000,*7F
$GPRMC,100742,A,3305.4302,N,09413.9621,W,60.26,228.00,220915,,,*17
$PNAVA,,5.000000,*7F
$GPRMC,100743,A,3305.4185,N,09413.9779,W,60.26,228.00,220915,,,*17
$PNAVA,,5.000000,*7F
$GPRMC,100744,A,3305.4067,N,09413.9937,W,60.26,228.00,220915,,,*19
$PNAVA,,5.000000,*7F
$GPRMC,100745,A,3305.3948,N,09414.0095,W,60.26,228.00,220915,,,*14
$PNAVA,,5.000000,*7F
$GPRMC,100746,A,3305.3831,N,09414.0254,W,60.26,228.00,220915,,,*17
$PNAVA,,5.000000,*7F
$GPRMC,100747,A,3305.3723,N,09414.0398,W,60.26,228.00,220915,,,*1B
$PNAVA,,5.000000,*7F
$GPRMC,100748,A,3305.3605,N,09414.0556,W,60.26,228.00,220915,,,*15
$PNAVA,,5.000000,*7F
$GPRMC,100749,A,3305.3487,N,09414.0714,W,60.26,228.00,220915,,,*18
$PNAVA,,5.000000,*7F
$GPRMC,100750,A,3305.3369,N,09414.0873,W,60.26,228.00,220915,,,*19
$PNAVA,,5.000000,*7F
$GPRMC,100751,A,3305.3251,N,09414.1031,W,60.26,228.00,220915,,,*1D
$PNAVA,,5.000000,*7F
$GPRMC,100752,A,3305.3132,N,09414.1189,W,60.26,228.00,220915,,,*1A
$PNAVA,,5.000000,*7F
$GPRMC,100753,A,3305.3024,N,09414.1332,W,60.26,228.00,220915,,,*1F
$PNAVA,,5.000000,*7F
$GPRMC,100754,A,3305.2906,N,09414.1490,W,60.26,228.00,220915,,,*1F
$PNAVA,,5.000000,*7F
$GPRMC,100755,A,3305.2787,N,09414.1647,W,60.26,228.00,220915,,,*11
$PNAVA,,5.000000,*7F
$GPRMC,100756,A,3305.2669,N,09414.1805,W,60.26,228.00,220915,,,*1B
$PNAVA,,5.000000,*7F
$GPRMC,100757,A,3305.2550,N,09414.1963,W,60.26,228.00,220915,,,*12
$PNAVA,,5.000000,*7F
$GPRMC,100758,A,3305.2432,N,09414.2121,W,60.26,228.00,220915,,,*15
$PNAVA,,5.000000,*7F
$GPRMC,100759,A,3305.2324,N,09414.2264,W,60.26,228.00,220915,,,*16
$PNAVA,,5.000000,*7F
$GPRMC,100800,A,3305.2205,N,09414.2422,W,60.26,228.00,220915,,,*13
$PNAVA,,5.000000,*7F
$GPRMC,100801,A,3305.2087,N,09414.2580,W,60.26,228.00,220915,,,*13
$PNAVA,,5.000000,*7F
$GPRMC,100802,A,3305.1968,N,09414.2738,W,60.26,228.00,220915,,,*1A
$PNAVA,,5.000000,*7F
$GPRMC,100803,A,3305.1850,N,09414.2897,W,60.26,228.00,220915,,,*1B
$PNAVA,,5.000000,*7F
$GPRMC,100804,A,3305.1733,N,09414.3055,W,60.26,228.00,220915,,,*11
$PNAVA,,5.000000,*7F
$GPRMC,100805,A,3305.1625,N,09414.3199,W,60.26,228.00,220915,,,*17
$PNAVA,,5.000000,*7F
$GPRMC,100806,A,3305.1507,N,09414.3357,W,60.26,228.00,220915,,,*17
$PNAVA,,5.000000,*7F
$GPRMC,100807,A,3305.1389,N,09414.3516,W,60.26,228.00,220915,,,*15
$PNAVA,,5.000000,*7F
$GPRMC,100808,A,3305.1271,N,09414.3674,W,60.26,228.00,220915,,,*1B
$PNAVA,,5.000000,*7F
$GPRMC,100809,A,3305.1153,N,09414.3833,W,60.26,228.00,220915,,,*14
$PNAVA,,5.000000,*7F
$GPRMC,100810,A,3305.1035,N,09414.3991,W,60.26,228.00,220915,,,*14
$PNAVA,,5.000000,*7F
$GPRMC,100811,A,3305.0927,N,09414.4135,W,60.26,228.00,220915,,,*1F
$PNAVA,,5.000000,*7F
$GPRMC,100812,A,3305.0809,N,09414.4293,W,60.26,228.00,220915,,,*1E
$PNAVA,,5.000000,*7F
$GPRMC,100813,A,3305.0690,N,09414.4451,W,60.26,228.00,220915,,,*19
$PNAVA,,5.000000,*7F
$GPRMC,100814,A,3305.0572,N,09414.4608,W,60.26,228.00,220915,,,*1F
$PNAVA,,5.000000,*7F
$GPRMC,100815,A,3305.0453,N,09414.4766,W,60.26,228.00,220915,,,*15
$PNAVA,,5.000000,*7F
$GPRMC,100816,A,3305.0335,N,09414.4924,W,60.26,228.00,220915,,,*19
$PNAVA,,5.000000,*7F
$GPRMC,100817,A,3305.0227,N,09414.5067,W,60.26,228.00,220915,,,*15
$PNAVA,,5.000000,*7F
$GPRMC,100818,A,3305.0108,N,09414.5225,W,60.26,228.00,220915,,,*10
$PNAVA,,5.000000,*7F
$GPRMC,100819,A,3304.9989,N,09414.5382,W,60.26,228.00,220915,,,*14
$PNAVA,,5.000000,*7F
$GPRMC,100820,A,3304.9871,N,09414.5540,W,60.26,228.00,220915,,,*10
$PNAVA,,5.000000,*7F
$GPRMC,100821,A,3304.9714,N,09414.5751,W,60.26,229.00,220915,,,*1E
$PNAVA,,5.000000,*7F
$GPRMC,100822,A,3304.9598,N,09414.5911,W,60.26,229.00,220915,,,*11
$PNAVA,,5.000000,*7F
$GPRMC,100823,A,3304.9492,N,09414.6056,W,60.26,229.00,220915,,,*12
$PNAVA,,5.000000,*7F
$GPRMC,100824,A,3304.9375,N,09414.6216,W,60.26,229.00,220915,,,*1D
$PNAVA,,5.000000,*7F
$GPRMC,100825,A,3304.9249,N,09414.6381,W,60.26,227.00,220915,,,*13
$PNAVA,,5.000000,*7F
$GPRMC,100826,A,3304.9130,N,09414.6539,W,60.26,228.00,220915,,,*17
$PNAVA,,5.000000,*7F
$GPRMC,100827,A,3304.9012,N,09414.6698,W,60.26,228.00,220915,,,*1F
$PNAVA,,5.000000,*7F
$GPRMC,100829,A,3304.8895,N,09414.6857,W,60.26,228.00,220915,,,*1A
$PNAVA,,5.000000,*7F
$GPRMC,100830,A,3304.8788,N,09414.7001,W,60.26,228.00,220915,,,*1B
$PNAVA,,5.000000,*7F
$GPRMC,100831,A,3304.8671,N,09414.7160,W,60.26,228.00,220915,,,*1B
$PNAVA,,5.000000,*7F
$GPRMC,100832,A,3304.8553,N,09414.7319,W,60.26,228.00,220915,,,*17
$PNAVA,,5.000000,*7F
$GPRMC,100833,A,3304.8436,N,09414.7478,W,60.26,228.00,220915,,,*14
$PNAVA,,5.000000,*7F
$GPRMC,100834,A,3304.8318,N,09414.7637,W,60.26,228.00,220915,,,*11
$PNAVA,,5.000000,*7F
$GPRMC,100835,A,3304.8200,N,09414.7796,W,60.26,228.00,220915,,,*12
$PNAVA,,5.000000,*7F
$GPRMC,100836,A,3304.8093,N,09414.7940,W,60.26,228.00,220915,,,*1C
$PNAVA,,5.000000,*7F
$GPRMC,100837,A,3304.7975,N,09414.8097,W,60.26,228.00,220915,,,*1F
$PNAVA,,5.000000,*7F
$GPRMC,100838,A,3304.7857,N,09414.8256,W,60.26,228.00,220915,,,*1E
$PNAVA,,5.000000,*7F
$GPRMC,100839,A,3304.7738,N,09414.8414,W,60.26,228.00,220915,,,*19
$PNAVA,,5.000000,*7F
$GPRMC,100840,A,3304.7620,N,09414.8572,W,60.26,228.00,220915,,,*1E
$PNAVA,,5.000000,*7F
$GPRMC,100841,A,3304.7501,N,09414.8730,W,60.26,228.00,220915,,,*1B
$PNAVA,,5.000000,*7F
$GPRMC,100842,A,3304.7388,N,09414.8882,W,60.26,228.00,220915,,,*19
$PNAVA,,5.000000,*7F
$GPRMC,100843,A,3304.7269,N,09414.9040,W,60.26,228.00,220915,,,*11
$PNAVA,,5.000000,*7F
$GPRMC,100844,A,3304.7150,N,09414.9197,W,60.26,228.00,220915,,,*14
$PNAVA,,5.000000,*7F
$GPRMC,100845,A,3304.7032,N,09414.9355,W,60.26,228.00,220915,,,*1C
$PNAVA,,5.000000,*7F
$GPRMC,100846,A,3304.6913,N,09414.9513,W,60.26,228.00,220915,,,*10
$PNAVA,,5.000000,*7F
$GPRMC,100847,A,3304.6789,N,09414.9679,W,60.26,228.00,220915,,,*13
$PNAVA,,5.000000,*7F
$GPRMC,100848,A,3304.6682,N,09414.9824,W,60.26,228.00,220915,,,*10
$PNAVA,,5.000000,*7F
$GPRMC,100849,A,3304.6565,N,09414.9983,W,60.26,228.00,220915,,,*17
$PNAVA,,5.000000,*7F
$GPRMC,100850,A,3304.6447,N,09415.0142,W,60.26,228.00,220915,,,*13
$PNAVA,,5.000000,*7F
$GPRMC,100851,A,3304.6330,N,09415.0301,W,60.26,228.00,220915,,,*10
$PNAVA,,5.000000,*7F
$GPRMC,100852,A,3304.6213,N,09415.0460,W,60.26,228.00,220915,,,*13
$PNAVA,,5.000000,*7F
$GPRMC,100853,A,3304.6095,N,09415.0619,W,60.26,228.00,220915,,,*12
$PNAVA,,5.000000,*7F
$GPRMC,100854,A,3304.5988,N,09415.0763,W,60.26,228.00,220915,,,*1F
$PNAVA,,5.000000,*7F
$GPRMC,100855,A,3304.5869,N,09415.0920,W,60.26,227.00,220915,,,*16
$PNAVA,,5.000000,*7F
$GPRMC,100856,A,3304.5749,N,09415.1077,W,60.26,227.00,220915,,,*12
$PNAVA,,5.000000,*7F
$GPRMC,100857,A,3304.5629,N,09415.1233,W,60.26,227.00,220915,,,*16
$PNAVA,,5.000000,*7F
$GPRMC,100858,A,3304.5508,N,09415.1392,W,60.26,228.00,220915,,,*1C
$PNAVA,,5.000000,*7F
$GPRMC,100859,A,3304.5390,N,09415.1550,W,60.26,228.00,220915,,,*12
$PNAVA,,5.000000,*7F
$GPRMC,100900,A,3304.5283,N,09415.1695,W,60.26,228.00,220915,,,*16
$PNAVA,,5.000000,*7F
$GPRMC,100901,A,3304.5166,N,09415.1853,W,60.26,228.00,220915,,,*1B
$PNAVA,,5.000000,*7F
$GPRMC,100902,A,3304.5047,N,09415.2012,W,60.26,228.00,220915,,,*14
$PNAVA,,5.000000,*7F
$GPRMC,100903,A,3304.4930,N,09415.2171,W,60.26,228.00,220915,,,*19
$PNAVA,,5.000000,*7F
$GPRMC,100904,A,3304.4812,N,09415.2330,W,60.26,228.00,220915,,,*18
$PNAVA,,5.000000,*7F
$GPRMC,100905,A,3304.4695,N,09415.2488,W,60.26,228.00,220915,,,*1C
$PNAVA,,5.000000,*7F
$GPRMC,100906,A,3304.4587,N,09415.2632,W,60.26,228.00,220915,,,*1C
$PNAVA,,5.000000,*7F
$GPRMC,100907,A,3304.4471,N,09415.2797,W,60.26,232.00,220915,,,*10
$PNAVA,,5.000000,*7F
$GPRMC,100908,A,3304.4362,N,09415.2965,W,60.26,232.00,220915,,,*19
$PNAVA,,5.000000,*7F
$GPRMC,100909,A,3304.4255,N,09415.3134,W,60.26,234.00,220915,,,*16
$PNAVA,,5.000000,*7F
$GPRMC,100910,A,3304.4152,N,09415.3306,W,60.26,234.00,220915,,,*19
$PNAVA,,5.000000,*7F
$GPRMC,100911,A,3304.4048,N,09415.3478,W,60.26,234.00,220915,,,*1C
$PNAVA,,5.000000,*7F
$GPRMC,100912,A,3304.3954,N,09415.3635,W,60.26,234.00,220915,,,*17
$PNAVA,,5.000000,*7F
$GPRMC,100913,A,3304.3850,N,09415.3806,W,60.26,234.00,220915,,,*1D
$PNAVA,,5.000000,*7F
$GPRMC,100914,A,3304.3746,N,09415.3979,W,60.26,234.00,220915,,,*1B
$PNAVA,,5.000000,*7F
$GPRMC,100915,A,3304.3640,N,09415.4156,W,60.26,235.00,220915,,,*1E
$PNAVA,,5.000000,*7F
$GPRMC,100916,A,3304.3538,N,09415.4330,W,60.26,235.00,220915,,,*13
$PNAVA,,5.000000,*7F
$GPRMC,100917,A,3304.3436,N,09415.4503,W,60.26,235.00,220915,,,*1B
$PNAVA,,5.000000,*7F
$GPRMC,100918,A,3304.3343,N,09415.4660,W,60.26,235.00,220915,,,*17
$PNAVA,,5.000000,*7F
$GPRMC,100919,A,3304.3235,N,09415.4841,W,60.26,235.00,220915,,,*1B
$PNAVA,,5.000000,*7F
$GPRMC,100920,A,3304.3133,N,09415.5014,W,60.26,235.00,220915,,,*1D
$PNAVA,,5.000000,*7F
$GPRMC,100921,A,3304.3031,N,09415.5187,W,60.26,235.00,220915,,,*14
$PNAVA,,5.000000,*7F
$GPRMC,100922,A,3304.2928,N,09415.5360,W,60.26,235.00,220915,,,*1C
$PNAVA,,5.000000,*7F
$GPRMC,100923,A,3304.2826,N,09415.5533,W,60.26,235.00,220915,,,*12
$PNAVA,,5.000000,*7F
$GPRMC,100924,A,3304.2733,N,09415.5691,W,60.26,235.00,220915,,,*15
$PNAVA,,5.000000,*7F
$GPRMC,100925,A,3304.2630,N,09415.5864,W,60.26,235.00,220915,,,*12
$PNAVA,,5.000000,*7F
$GPRMC,100926,A,3304.2528,N,09415.6038,W,60.26,235.00,220915,,,*19
$PNAVA,,5.000000,*7F
$GPRMC,100927,A,3304.2427,N,09415.6211,W,60.26,235.00,220915,,,*1F
$PNAVA,,5.000000,*7F
$GPRMC,100928,A,3304.2325,N,09415.6385,W,60.26,235.00,220915,,,*19
$PNAVA,,5.000000,*7F
$GPRMC,100929,A,3304.2224,N,09415.6560,W,60.26,235.00,220915,,,*15
$PNAVA,,5.000000,*7F
$GPRMC,100930,A,3304.2120,N,09415.6707,W,60.26,228.00,220915,,,*15
$PNAVA,,5.000000,*7F
$GPRMC,100931,A,3304.2002,N,09415.6865,W,60.26,228.00,220915,,,*1E
$PNAVA,,5.000000,*7F
$GPRMC,100932,A,3304.1884,N,09415.7024,W,60.26,224.00,220915,,,*18
$PNAVA,,5.000000,*7F
$GPRMC,100933,A,3304.1757,N,09415.7171,W,60.26,224.00,220915,,,*19
$PNAVA,,5.000000,*7F
$GPRMC,100934,A,3304.1629,N,09415.7318,W,60.26,224.00,220915,,,*1B
$PNAVA,,5.000000,*7F
$GPRMC,100935,A,3304.1499,N,09415.7492,W,60.26,215.00,220915,,,*14
$PNAVA,,5.000000,*7F
$GPRMC,100936,A,3304.1368,N,09415.7604,W,60.26,215.00,220915,,,*13
$PNAVA,,5.000000,*7F
$GPRMC,100937,A,3304.1218,N,09415.7716,W,60.26,208.00,220915,,,*1A
$PNAVA,,5.000000,*7F
$GPRMC,100938,A,3304.1062,N,09415.7818,W,60.26,209.00,220915,,,*1A
$PNAVA,,5.000000,*7F
$GPRMC,100939,A,3304.0907,N,09415.7921,W,60.26,209.00,220915,,,*1B
$PNAVA,,5.000000,*7F
$GPRMC,100940,A,3304.0752,N,09415.8025,W,60.26,209.00,220915,,,*19
$PNAVA,,5.000000,*7F
$GPRMC,100942,A,3304.0597,N,09415.8128,W,60.26,209.00,220915,,,*1C
$PNAVA,,5.000000,*7F
$GPRMC,100943,A,3304.0456,N,09415.8222,W,60.26,209.00,220915,,,*18
$PNAVA,,5.000000,*7F
$GPRMC,100944,A,3304.0301,N,09415.8326,W,60.26,209.00,220915,,,*1F
$PNAVA,,5.000000,*7F
$GPRMC,100945,A,3304.0145,N,09415.8429,W,60.26,209.00,220915,,,*14
$PNAVA,,5.000000,*7F
$GPRMC,100946,A,3303.9980,N,09415.8540,W,60.26,209.00,220915,,,*16
$PNAVA,,5.000000,*7F
$GPRMC,100947,A,3303.9826,N,09415.8645,W,60.26,209.00,220915,,,*1C
$PNAVA,,5.000000,*7F
$GPRMC,100948,A,3303.9671,N,09415.8749,W,60.26,209.00,220915,,,*12
$PNAVA,,5.000000,*7F
$GPRMC,100949,A,3303.9531,N,09415.8844,W,60.26,209.00,220915,,,*16
$PNAVA,,5.000000,*7F
$GPRMC,100950,A,3303.9377,N,09415.8948,W,60.26,209.00,220915,,,*17
$PNAVA,,5.000000,*7F
$GPRMC,100951,A,3303.9222,N,09415.9053,W,60.26,209.00,220915,,,*15
$PNAVA,,5.000000,*7F
$GPRMC,100952,A,3303.9064,N,09415.9156,W,60.26,208.00,220915,,,*13
$PNAVA,,5.000000,*7F
$GPRMC,100953,A,3303.8911,N,09415.9256,W,60.26,208.00,220915,,,*1B
$PNAVA,,5.000000,*7F
$GPRMC,100954,A,3303.8755,N,09415.9358,W,60.26,208.00,220915,,,*1D
$PNAVA,,5.000000,*7F
$GPRMC,100955,A,3303.8613,N,09415.9451,W,60.26,208.00,220915,,,*11
$PNAVA,,5.000000,*7F
$GPRMC,100956,A,3303.8458,N,09415.9552,W,60.26,208.00,220915,,,*1D
$PNAVA,,5.000000,*7F
$GPRMC,100957,A,3303.8302,N,09415.9655,W,60.26,212.00,220915,,,*1B
$PNAVA,,5.000000,*7F
$GPRMC,100958,A,3303.8151,N,09415.9767,W,60.26,212.00,220915,,,*10
$PNAVA,,5.000000,*7F
$GPRMC,100959,A,3303.8000,N,09415.9879,W,60.26,212.00,220915,,,*14
$PNAVA,,5.000000,*7F
$GPRMC,101000,A,3303.7863,N,09416.0011,W,60.26,225.00,220915,,,*1A
$PNAVA,,5.000000,*7F
$GPRMC,101001,A,3303.7748,N,09416.0147,W,60.26,225.00,220915,,,*1F
$PNAVA,,5.000000,*7F
$GPRMC,101002,A,3303.7630,N,09416.0304,W,60.26,230.00,220915,,,*13
$PNAVA,,5.000000,*7F
$GPRMC,101003,A,3303.7517,N,09416.0468,W,60.26,230.00,220915,,,*19
$PNAVA,,5.000000,*7F
$GPRMC,101004,A,3303.7427,N,09416.0650,W,60.26,241.00,220915,,,*13
$PNAVA,,5.000000,*7F
$GPRMC,101005,A,3303.7346,N,09416.0838,W,60.26,248.00,220915,,,*1B
$PNAVA,,5.000000,*7F
$GPRMC,101006,A,3303.7281,N,09416.1035,W,60.26,248.00,220915,,,*16
$PNAVA,,5.000000,*7F
$GPRMC,101007,A,3303.7233,N,09416.1219,W,60.26,255.00,220915,,,*1E
$PNAVA,,5.000000,*7F
$GPRMC,101008,A,3303.7188,N,09416.1424,W,60.26,255.00,220915,,,*1A
$PNAVA,,5.000000,*7F
$GPRMC,101009,A,3303.7145,N,09416.1630,W,60.26,257.00,220915,,,*1F
$PNAVA,,5.000000,*7F
$GPRMC,101010,A,3303.7106,N,09416.1836,W,60.26,257.00,220915,,,*18
$PNAVA,,5.000000,*7F
$GPRMC,101011,A,3303.7067,N,09416.2043,W,60.26,257.00,220915,,,*16
$PNAVA,,5.000000,*7F
$GPRMC,101012,A,3303.7028,N,09416.2250,W,60.26,257.00,220915,,,*1E
$PNAVA,,5.000000,*7F
$GPRMC,101013,A,3303.6992,N,09416.2437,W,60.26,257.00,220915,,,*11
$PNAVA,,5.000000,*7F
$GPRMC,101014,A,3303.6953,N,09416.2644,W,60.26,257.00,220915,,,*1D
$PNAVA,,5.000000,*7F
$GPRMC,101015,A,3303.6914,N,09416.2851,W,60.26,257.00,220915,,,*15
$PNAVA,,5.000000,*7F
$GPRMC,101016,A,3303.6875,N,09416.3058,W,60.26,257.00,220915,,,*10
$PNAVA,,5.000000,*7F
$GPRMC,101017,A,3303.6836,N,09416.3264,W,60.26,257.00,220915,,,*1B
$PNAVA,,5.000000,*7F
$GPRMC,101018,A,3303.6787,N,09416.3524,W,60.26,257.00,220915,,,*12
$PNAVA,,5.000000,*7F
$GPRMC,101019,A,3303.6752,N,09416.3712,W,60.26,257.00,220915,,,*1C
$PNAVA,,5.000000,*7F
$GPRMC,101020,A,3303.6713,N,09416.3919,W,60.26,257.00,220915,,,*16
$PNAVA,,5.000000,*7F
$GPRMC,101021,A,3303.6674,N,09416.4125,W,60.26,257.00,220915,,,*17
$PNAVA,,5.000000,*7F
$GPRMC,101022,A,3303.6635,N,09416.4332,W,60.26,257.00,220915,,,*15
$PNAVA,,5.000000,*7F
$GPRMC,101023,A,3303.6596,N,09416.4539,W,60.26,257.00,220915,,,*13
$PNAVA,,5.000000,*7F
$GPRMC,101024,A,3303.6557,N,09416.4746,W,60.26,257.00,220915,,,*13
$PNAVA,,5.000000,*7F
$GPRMC,101025,A,3303.6522,N,09416.4933,W,60.26,257.00,220915,,,*1C
$PNAVA,,5.000000,*7F
$GPRMC,101026,A,3303.6480,N,09416.5157,W,60.26,257.00,220915,,,*1D
$PNAVA,,5.000000,*7F
$GPRMC,101027,A,3303.6441,N,09416.5364,W,60.26,257.00,220915,,,*13
$PNAVA,,5.000000,*7F
$GPRMC,101028,A,3303.6402,N,09416.5571,W,60.26,257.00,220915,,,*19
$PNAVA,,5.000000,*7F
$GPRMC,101029,A,3303.6364,N,09416.5777,W,60.26,257.00,220915,,,*1B
$PNAVA,,5.000000,*7F
$GPRMC,101030,A,3303.6325,N,09416.5984,W,60.26,259.00,220915,,,*1A
$PNAVA,,5.000000,*7F
$GPRMC,101031,A,3303.6296,N,09416.6174,W,60.26,259.00,220915,,,*16
$PNAVA,,5.000000,*7F
$GPRMC,101032,A,3303.6271,N,09416.6384,W,60.26,265.00,220915,,,*1E
$PNAVA,,5.000000,*7F
$GPRMC,101033,A,3303.6254,N,09416.6594,W,60.26,274.00,220915,,,*1F
$PNAVA,,5.000000,*7F
$GPRMC,101034,A,3303.6265,N,09416.6806,W,60.26,274.00,220915,,,*1C
$PNAVA,,5.000000,*7F
$GPRMC,101035,A,3303.6275,N,09416.7017,W,60.26,274.00,220915,,,*15
$PNAVA,,5.000000,*7F
$GPRMC,101036,A,3303.6286,N,09416.7228,W,60.26,274.00,220915,,,*14
$PNAVA,,5.000000,*7F
$GPRMC,101037,A,3303.6287,N,09416.7421,W,60.26,270.00,220915,,,*1F
$PNAVA,,5.000000,*7F
$GPRMC,101038,A,3303.6282,N,09416.7633,W,60.26,264.00,220915,,,*11
$PNAVA,,5.000000,*7F
$GPRMC,101039,A,3303.6264,N,09416.7844,W,60.26,264.00,220915,,,*16
$PNAVA,,5.000000,*7F
$GPRMC,101040,A,3303.6237,N,09416.8053,W,60.26,258.00,220915,,,*10
$PNAVA,,5.000000,*7F
$GPRMC,101041,A,3303.6200,N,09416.8260,W,60.26,258.00,220915,,,*17
$PNAVA,,5.000000,*7F
$GPRMC,101042,A,3303.6151,N,09416.8461,W,60.26,232.00,220915,,,*18
$PNAVA,,5.000000,*7F
$GPRMC,101043,A,3303.6076,N,09416.8670,W,60.26,253.00,220915,,,*18
$PNAVA,,5.000000,*7F
$GPRMC,101044,A,3303.6017,N,09416.8869,W,60.26,250.00,220915,,,*1D
$PNAVA,,5.000000,*7F
$GPRMC,101045,A,3303.5942,N,09416.9061,W,60.26,245.00,220915,,,*13
$PNAVA,,5.000000,*7F
$GPRMC,101046,A,3303.5866,N,09416.9253,W,60.26,236.00,220915,,,*10
$PNAVA,,5.000000,*7F
$GPRMC,101047,A,3303.5767,N,09416.9429,W,60.26,236.00,220915,,,*14
$PNAVA,,5.000000,*7F
$GPRMC,101048,A,3303.5669,N,09416.9605,W,60.26,236.00,220915,,,*18
$PNAVA,,5.000000,*7F
$GPRMC,101049,A,3303.5567,N,09416.9776,W,60.26,231.00,220915,,,*16
$PNAVA,,5.000000,*7F
$GPRMC,101050,A,3303.5456,N,09416.9942,W,60.26,231.00,220915,,,*14
$PNAVA,,5.000000,*7F
$GPRMC,101051,A,3303.5344,N,09417.0107,W,60.26,231.00,220915,,,*10
$PNAVA,,5.000000,*7F
$GPRMC,101052,A,3303.5233,N,09417.0272,W,60.26,231.00,220915,,,*13
$PNAVA,,5.000000,*7F
$GPRMC,101053,A,3303.5122,N,09417.0437,W,60.26,231.00,220915,,,*16
$PNAVA,,5.000000,*7F
$GPRMC,101055,A,3303.5011,N,09417.0602,W,60.26,231.00,220915,,,*15
$PNAVA,,5.000000,*7F
$GPRMC,101056,A,3303.4910,N,09417.0752,W,60.26,231.00,220915,,,*1B
$PNAVA,,5.000000,*7F
$GPRMC,101057,A,3303.4798,N,09417.0917,W,60.26,231.00,220915,,,*1B
$PNAVA,,5.000000,*7F
$GPRMC,101058,A,3303.4687,N,09417.1082,W,60.26,231.00,220915,,,*1F
$PNAVA,,5.000000,*7F
$GPRMC,101059,A,3303.4575,N,09417.1247,W,60.26,231.00,220915,,,*1B
$PNAVA,,5.000000,*7F
$GPRMC,101100,A,3303.4463,N,09417.1412,W,60.26,231.00,220915,,,*16
$PNAVA,,5.000000,*7F
$GPRMC,101101,A,3303.4352,N,09417.1577,W,60.26,231.00,220915,,,*10
$PNAVA,,5.000000,*7F
$GPRMC,101102,A,3303.4251,N,09417.1727,W,60.26,231.00,220915,,,*16
$PNAVA,,5.000000,*7F
$GPRMC,101103,A,3303.4139,N,09417.1892,W,60.26,231.00,220915,,,*1B
$PNAVA,,5.000000,*7F
$GPRMC,101104,A,3303.4028,N,09417.2057,W,60.26,231.00,220915,,,*1F
$PNAVA,,5.000000,*7F
$GPRMC,101105,A,3303.3916,N,09417.2222,W,60.26,231.00,220915,,,*1D
$PNAVA,,5.000000,*7F
$GPRMC,101106,A,3303.3805,N,09417.2387,W,60.26,231.00,220915,,,*13
$PNAVA,,5.000000,*7F
$GPRMC,101107,A,3303.3693,N,09417.2552,W,60.26,231.00,220915,,,*1D
$PNAVA,,5.000000,*7F
$GPRMC,101108,A,3303.3592,N,09417.2702,W,60.26,231.00,220915,,,*17
$PNAVA,,5.000000,*7F
$GPRMC,101109,A,3303.3480,N,09417.2867,W,60.26,231.00,220915,,,*18
$PNAVA,,5.000000,*7F
$GPRMC,101110,A,3303.3369,N,09417.3031,W,60.26,231.00,220915,,,*1A
$PNAVA,,5.000000,*7F
$GPRMC,101111,A,3303.3257,N,09417.3196,W,60.26,231.00,220915,,,*1B
$PNAVA,,5.000000,*7F
$GPRMC,101112,A,3303.3146,N,09417.3362,W,60.26,231.00,220915,,,*12
$PNAVA,,5.000000,*7F
$GPRMC,101113,A,3303.3034,N,09417.3526,W,60.26,231.00,220915,,,*11
$PNAVA,,5.000000,*7F
$GPRMC,101114,A,3303.2933,N,09417.3676,W,60.26,231.00,220915,,,*1F
$PNAVA,,5.000000,*7F
$GPRMC,101115,A,3303.2822,N,09417.3841,W,60.26,231.00,220915,,,*15
$PNAVA,,5.000000,*7F
$GPRMC,101116,A,3303.2710,N,09417.4006,W,60.26,231.00,220915,,,*14
$PNAVA,,5.000000,*7F
$GPRMC,101117,A,3303.2599,N,09417.4171,W,60.26,231.00,220915,,,*17
$PNAVA,,5.000000,*7F
$GPRMC,101118,A,3303.2487,N,09417.4336,W,60.26,231.00,220915,,,*17
$PNAVA,,5.000000,*7F
$GPRMC,101119,A,3303.2375,N,09417.4500,W,60.26,231.00,220915,,,*1F
$PNAVA,,5.000000,*7F
$GPRMC,101120,A,3303.2274,N,09417.4650,W,60.26,231.00,220915,,,*13
$PNAVA,,5.000000,*7F
$GPRMC,101121,A,3303.2162,N,09417.4815,W,60.26,231.00,220915,,,*19
$PNAVA,,5.000000,*7F
$GPRMC,101122,A,3303.2050,N,09417.4980,W,60.26,231.00,220915,,,*17
$PNAVA,,5.000000,*7F
$GPRMC,101123,A,3303.1939,N,09417.5144,W,60.26,231.00,220915,,,*12
$PNAVA,,5.000000,*7F
$GPRMC,101124,A,3303.1827,N,09417.5309,W,60.26,231.00,220915,,,*10
$PNAVA,,5.000000,*7F
$GPRMC,101125,A,3303.1715,N,09417.5474,W,60.26,231.00,220915,,,*12
$PNAVA,,5.000000,*7F
$GPRMC,101126,A,3303.1613,N,09417.5623,W,60.26,231.00,220915,,,*16
$PNAVA,,5.000000,*7F
$GPRMC,101127,A,3303.1500,N,09417.5786,W,60.26,229.00,220915,,,*11
$PNAVA,,5.000000,*7F
$GPRMC,101128,A,3303.1384,N,09417.5946,W,60.26,229.00,220915,,,*16
$PNAVA,,5.000000,*7F
$GPRMC,101129,A,3303.1267,N,09417.6106,W,60.26,229.00,220915,,,*14
$PNAVA,,5.000000,*7F
$GPRMC,101130,A,3303.1151,N,09417.6266,W,60.26,229.00,220915,,,*1F
$PNAVA,,5.000000,*7F
$GPRMC,101131,A,3303.1034,N,09417.6426,W,60.26,229.00,220915,,,*1E
$PNAVA,,5.000000,*7F
